{"directed": true, "multigraph": false, "graph": {}, "nodes": [{"name": "Van Cortlandt Park-242 St", "lat": 40.889248, "lon": -73.898583, "id": "101"}, {"name": "238 St", "lat": 40.884667, "lon": -73.90087, "id": "103"}, {"name": "231 St", "lat": 40.878856, "lon": -73.904834, "id": "104"}, {"name": "Marble Hill-225 St", "lat": 40.874561, "lon": -73.909831, "id": "106"}, {"name": "215 St", "lat": 40.869444, "lon": -73.915279, "id": "107"}, {"name": "207 St", "lat": 40.864621, "lon": -73.918822, "id": "108"}, {"name": "Dyckman St", "lat": 40.860531, "lon": -73.925536, "id": "109"}, {"name": "191 St", "lat": 40.855225, "lon": -73.929412, "id": "110"}, {"name": "181 St", "lat": 40.849505, "lon": -73.933596, "id": "111"}, {"name": "168 St-Washington Hts", "lat": 40.840556, "lon": -73.940133, "id": "112"}, {"name": "157 St", "lat": 40.834041, "lon": -73.94489, "id": "113"}, {"name": "145 St", "lat": 40.826551, "lon": -73.95036, "id": "114"}, {"name": "137 St-City College", "lat": 40.822008, "lon": -73.953676, "id": "115"}, {"name": "125 St", "lat": 40.815581, "lon": -73.958372, "id": "116"}, {"name": "116 St-Columbia University", "lat": 40.807722, "lon": -73.96411, "id": "117"}, {"name": "Cathedral Pkwy (110 St)", "lat": 40.803967, "lon": -73.966847, "id": "118"}, {"name": "103 St", "lat": 40.799446, "lon": -73.968379, "id": "119"}, {"name": "96 St", "lat": 40.793919, "lon": -73.972323, "id": "120"}, {"name": "86 St", "lat": 40.788644, "lon": -73.976218, "id": "121"}, {"name": "79 St", "lat": 40.783934, "lon": -73.979917, "id": "122"}, {"name": "72 St", "lat": 40.778453, "lon": -73.98197, "id": "123"}, {"name": "66 St-Lincoln Center", "lat": 40.77344, "lon": -73.982209, "id": "124"}, {"name": "59 St-Columbus Circle", "lat": 40.768247, "lon": -73.981929, "id": "125"}, {"name": "50 St", "lat": 40.761728, "lon": -73.983849, "id": "126"}, {"name": "Times Sq-42 St", "lat": 40.75529, "lon": -73.987495, "id": "127"}, {"name": "34 St-Penn Station", "lat": 40.750373, "lon": -73.991057, "id": "128"}, {"name": "28 St", "lat": 40.747215, "lon": -73.993365, "id": "129"}, {"name": "23 St", "lat": 40.744081, "lon": -73.995657, "id": "130"}, {"name": "18 St", "lat": 40.74104, "lon": -73.997871, "id": "131"}, {"name": "14 St", "lat": 40.737826, "lon": -74.000201, "id": "132"}, {"name": "Christopher St-Stonewall", "lat": 40.733422, "lon": -74.002906, "id": "133"}, {"name": "Houston St", "lat": 40.728251, "lon": -74.005367, "id": "134"}, {"name": "Canal St", "lat": 40.722854, "lon": -74.006277, "id": "135"}, {"name": "Franklin St", "lat": 40.719318, "lon": -74.006886, "id": "136"}, {"name": "Chambers St", "lat": 40.715478, "lon": -74.009266, "id": "137"}, {"name": "WTC Cortlandt", "lat": 40.711835, "lon": -74.012188, "id": "138"}, {"name": "Rector St", "lat": 40.707513, "lon": -74.013783, "id": "139"}, {"name": "South Ferry Loop", "lat": 40.701411, "lon": -74.013205, "id": "140"}, {"name": "South Ferry", "lat": 40.702068, "lon": -74.013664, "id": "142"}, {"name": "Wakefield-241 St", "lat": 40.903125, "lon": -73.85062, "id": "201"}, {"name": "Nereid Av", "lat": 40.898379, "lon": -73.854376, "id": "204"}, {"name": "233 St", "lat": 40.893193, "lon": -73.857473, "id": "205"}, {"name": "225 St", "lat": 40.888022, "lon": -73.860341, "id": "206"}, {"name": "219 St", "lat": 40.883895, "lon": -73.862633, "id": "207"}, {"name": "Gun Hill Rd", "lat": 40.87785, "lon": -73.866256, "id": "208"}, {"name": "Burke Av", "lat": 40.871356, "lon": -73.867164, "id": "209"}, {"name": "Allerton Av", "lat": 40.865462, "lon": -73.867352, "id": "210"}, {"name": "Pelham Pkwy", "lat": 40.857192, "lon": -73.867615, "id": "211"}, {"name": "Bronx Park East", "lat": 40.848828, "lon": -73.868457, "id": "212"}, {"name": "E 180 St", "lat": 40.841894, "lon": -73.873488, "id": "213"}, {"name": "West Farms Sq-E Tremont Av", "lat": 40.840295, "lon": -73.880049, "id": "214"}, {"name": "174 St", "lat": 40.837288, "lon": -73.887734, "id": "215"}, {"name": "Freeman St", "lat": 40.829993, "lon": -73.891865, "id": "216"}, {"name": "Simpson St", "lat": 40.824073, "lon": -73.893064, "id": "217"}, {"name": "Intervale Av", "lat": 40.822181, "lon": -73.896736, "id": "218"}, {"name": "Prospect Av", "lat": 40.819585, "lon": -73.90177, "id": "219"}, {"name": "Jackson Av", "lat": 40.81649, "lon": -73.907807, "id": "220"}, {"name": "3 Av-149 St", "lat": 40.816109, "lon": -73.917757, "id": "221"}, {"name": "149 St-Grand Concourse", "lat": 40.81841, "lon": -73.926718, "id": "222"}, {"name": "135 St", "lat": 40.814229, "lon": -73.94077, "id": "224"}, {"name": "125 St", "lat": 40.807754, "lon": -73.945495, "id": "225"}, {"name": "116 St", "lat": 40.802098, "lon": -73.949625, "id": "226"}, {"name": "Central Park North (110 St)", "lat": 40.799075, "lon": -73.951822, "id": "227"}, {"name": "Park Place", "lat": 40.713051, "lon": -74.008811, "id": "228"}, {"name": "Fulton St", "lat": 40.709416, "lon": -74.006571, "id": "229"}, {"name": "Wall St", "lat": 40.706821, "lon": -74.0091, "id": "230"}, {"name": "Clark St", "lat": 40.697466, "lon": -73.993086, "id": "231"}, {"name": "Borough Hall", "lat": 40.693219, "lon": -73.989998, "id": "232"}, {"name": "Hoyt St", "lat": 40.690545, "lon": -73.985065, "id": "233"}, {"name": "Nevins St", "lat": 40.688246, "lon": -73.980492, "id": "234"}, {"name": "Atlantic Av-Barclays Ctr", "lat": 40.684359, "lon": -73.977666, "id": "235"}, {"name": "Bergen St", "lat": 40.680829, "lon": -73.975098, "id": "236"}, {"name": "Grand Army Plaza", "lat": 40.675235, "lon": -73.971046, "id": "237"}, {"name": "Eastern Pkwy-Brooklyn Museum", "lat": 40.671987, "lon": -73.964375, "id": "238"}, {"name": "Franklin Av-Medgar Evers College", "lat": 40.670682, "lon": -73.958131, "id": "239"}, {"name": "President St-Medgar Evers College", "lat": 40.667883, "lon": -73.950683, "id": "241"}, {"name": "Sterling St", "lat": 40.662742, "lon": -73.95085, "id": "242"}, {"name": "Winthrop St", "lat": 40.656652, "lon": -73.9502, "id": "243"}, {"name": "Church Av", "lat": 40.650843, "lon": -73.949575, "id": "244"}, {"name": "Beverly Rd", "lat": 40.645098, "lon": -73.948959, "id": "245"}, {"name": "Newkirk Av-Little Haiti", "lat": 40.639967, "lon": -73.948411, "id": "246"}, {"name": "Flatbush Av-Brooklyn College", "lat": 40.632836, "lon": -73.947642, "id": "247"}, {"name": "Nostrand Av", "lat": 40.669847, "lon": -73.950466, "id": "248"}, {"name": "Kingston Av", "lat": 40.669399, "lon": -73.942161, "id": "249"}, {"name": "Crown Hts-Utica Av", "lat": 40.668897, "lon": -73.932942, "id": "250"}, {"name": "Sutter Av-Rutland Rd", "lat": 40.664717, "lon": -73.92261, "id": "251"}, {"name": "Saratoga Av", "lat": 40.661453, "lon": -73.916327, "id": "252"}, {"name": "Rockaway Av", "lat": 40.662549, "lon": -73.908946, "id": "253"}, {"name": "Junius St", "lat": 40.663515, "lon": -73.902447, "id": "254"}, {"name": "Pennsylvania Av", "lat": 40.664635, "lon": -73.894895, "id": "255"}, {"name": "Van Siclen Av", "lat": 40.665449, "lon": -73.889395, "id": "256"}, {"name": "New Lots Av", "lat": 40.666235, "lon": -73.884079, "id": "257"}, {"name": "Harlem-148 St", "lat": 40.82388, "lon": -73.93647, "id": "301"}, {"name": "145 St", "lat": 40.820421, "lon": -73.936245, "id": "302"}, {"name": "Woodlawn", "lat": 40.886037, "lon": -73.878751, "id": "401"}, {"name": "Mosholu Pkwy", "lat": 40.87975, "lon": -73.884655, "id": "402"}, {"name": "Bedford Park Blvd-Lehman College", "lat": 40.873412, "lon": -73.890064, "id": "405"}, {"name": "Kingsbridge Rd", "lat": 40.86776, "lon": -73.897174, "id": "406"}, {"name": "Fordham Rd", "lat": 40.862803, "lon": -73.901034, "id": "407"}, {"name": "183 St", "lat": 40.858407, "lon": -73.903879, "id": "408"}, {"name": "Burnside Av", "lat": 40.853453, "lon": -73.907684, "id": "409"}, {"name": "176 St", "lat": 40.84848, "lon": -73.911794, "id": "410"}, {"name": "Mt Eden Av", "lat": 40.844434, "lon": -73.914685, "id": "411"}, {"name": "170 St", "lat": 40.840075, "lon": -73.917791, "id": "412"}, {"name": "167 St", "lat": 40.835537, "lon": -73.9214, "id": "413"}, {"name": "161 St-Yankee Stadium", "lat": 40.827994, "lon": -73.925831, "id": "414"}, {"name": "149 St-Grand Concourse", "lat": 40.818375, "lon": -73.927351, "id": "415"}, {"name": "138 St-Grand Concourse", "lat": 40.813224, "lon": -73.929849, "id": "416"}, {"name": "Fulton St", "lat": 40.710368, "lon": -74.009509, "id": "418"}, {"name": "Wall St", "lat": 40.707557, "lon": -74.011862, "id": "419"}, {"name": "Bowling Green", "lat": 40.704817, "lon": -74.014065, "id": "420"}, {"name": "Borough Hall", "lat": 40.692404, "lon": -73.990151, "id": "423"}, {"name": "Eastchester-Dyre Av", "lat": 40.8883, "lon": -73.830834, "id": "501"}, {"name": "Baychester Av", "lat": 40.878663, "lon": -73.838591, "id": "502"}, {"name": "Gun Hill Rd", "lat": 40.869526, "lon": -73.846384, "id": "503"}, {"name": "Pelham Pkwy", "lat": 40.858985, "lon": -73.855359, "id": "504"}, {"name": "Morris Park", "lat": 40.854364, "lon": -73.860495, "id": "505"}, {"name": "Pelham Bay Park", "lat": 40.852462, "lon": -73.828121, "id": "601"}, {"name": "Buhre Av", "lat": 40.84681, "lon": -73.832569, "id": "602"}, {"name": "Middletown Rd", "lat": 40.843863, "lon": -73.836322, "id": "603"}, {"name": "Westchester Sq-E Tremont Av", "lat": 40.839892, "lon": -73.842952, "id": "604"}, {"name": "Zerega Av", "lat": 40.836488, "lon": -73.847036, "id": "606"}, {"name": "Castle Hill Av", "lat": 40.834255, "lon": -73.851222, "id": "607"}, {"name": "Parkchester", "lat": 40.833226, "lon": -73.860816, "id": "608"}, {"name": "St Lawrence Av", "lat": 40.831509, "lon": -73.867618, "id": "609"}, {"name": "Morrison Av-Soundview", "lat": 40.829521, "lon": -73.874516, "id": "610"}, {"name": "Elder Av", "lat": 40.828584, "lon": -73.879159, "id": "611"}, {"name": "Whitlock Av", "lat": 40.826525, "lon": -73.886283, "id": "612"}, {"name": "Hunts Point Av", "lat": 40.820948, "lon": -73.890549, "id": "613"}, {"name": "Longwood Av", "lat": 40.816104, "lon": -73.896435, "id": "614"}, {"name": "E 149 St", "lat": 40.812118, "lon": -73.904098, "id": "615"}, {"name": "E 143 St-St Mary's St", "lat": 40.808719, "lon": -73.907657, "id": "616"}, {"name": "Cypress Av", "lat": 40.805368, "lon": -73.914042, "id": "617"}, {"name": "Brook Av", "lat": 40.807566, "lon": -73.91924, "id": "618"}, {"name": "3 Av-138 St", "lat": 40.810476, "lon": -73.926138, "id": "619"}, {"name": "125 St", "lat": 40.804138, "lon": -73.937594, "id": "621"}, {"name": "116 St", "lat": 40.798629, "lon": -73.941617, "id": "622"}, {"name": "110 St", "lat": 40.79502, "lon": -73.94425, "id": "623"}, {"name": "103 St", "lat": 40.7906, "lon": -73.947478, "id": "624"}, {"name": "96 St", "lat": 40.785672, "lon": -73.95107, "id": "625"}, {"name": "86 St", "lat": 40.779492, "lon": -73.955589, "id": "626"}, {"name": "77 St", "lat": 40.77362, "lon": -73.959874, "id": "627"}, {"name": "68 St-Hunter College", "lat": 40.768141, "lon": -73.96387, "id": "628"}, {"name": "59 St", "lat": 40.762526, "lon": -73.967967, "id": "629"}, {"name": "51 St", "lat": 40.757107, "lon": -73.97192, "id": "630"}, {"name": "Grand Central-42 St", "lat": 40.751776, "lon": -73.976848, "id": "631"}, {"name": "33 St", "lat": 40.746081, "lon": -73.982076, "id": "632"}, {"name": "28 St", "lat": 40.74307, "lon": -73.984264, "id": "633"}, {"name": "23 St", "lat": 40.739864, "lon": -73.986599, "id": "634"}, {"name": "14 St-Union Sq", "lat": 40.734673, "lon": -73.989951, "id": "635"}, {"name": "Astor Pl", "lat": 40.730054, "lon": -73.99107, "id": "636"}, {"name": "Bleecker St", "lat": 40.725915, "lon": -73.994659, "id": "637"}, {"name": "Spring St", "lat": 40.722301, "lon": -73.997141, "id": "638"}, {"name": "Canal St", "lat": 40.718803, "lon": -74.000193, "id": "639"}, {"name": "Brooklyn Bridge-City Hall", "lat": 40.713065, "lon": -74.004131, "id": "640"}, {"name": "Flushing-Main St", "lat": 40.7596, "lon": -73.83003, "id": "701"}, {"name": "Mets-Willets Point", "lat": 40.754622, "lon": -73.845625, "id": "702"}, {"name": "111 St", "lat": 40.75173, "lon": -73.855334, "id": "705"}, {"name": "103 St-Corona Plaza", "lat": 40.749865, "lon": -73.8627, "id": "706"}, {"name": "Junction Blvd", "lat": 40.749145, "lon": -73.869527, "id": "707"}, {"name": "90 St-Elmhurst Av", "lat": 40.748408, "lon": -73.876613, "id": "708"}, {"name": "82 St-Jackson Hts", "lat": 40.747659, "lon": -73.883697, "id": "709"}, {"name": "74 St-Broadway", "lat": 40.746848, "lon": -73.891394, "id": "710"}, {"name": "69 St", "lat": 40.746325, "lon": -73.896403, "id": "711"}, {"name": "61 St-Woodside", "lat": 40.74563, "lon": -73.902984, "id": "712"}, {"name": "52 St", "lat": 40.744149, "lon": -73.912549, "id": "713"}, {"name": "46 St-Bliss St", "lat": 40.743132, "lon": -73.918435, "id": "714"}, {"name": "40 St-Lowery St", "lat": 40.743781, "lon": -73.924016, "id": "715"}, {"name": "33 St-Rawson St", "lat": 40.744587, "lon": -73.930997, "id": "716"}, {"name": "Queensboro Plaza", "lat": 40.750582, "lon": -73.940202, "id": "718"}, {"name": "Court Sq", "lat": 40.747023, "lon": -73.945264, "id": "719"}, {"name": "Hunters Point Av", "lat": 40.742216, "lon": -73.948916, "id": "720"}, {"name": "Vernon Blvd-Jackson Av", "lat": 40.742626, "lon": -73.953581, "id": "721"}, {"name": "Grand Central-42 St", "lat": 40.751431, "lon": -73.976041, "id": "723"}, {"name": "5 Av", "lat": 40.753821, "lon": -73.981963, "id": "724"}, {"name": "Times Sq-42 St", "lat": 40.755477, "lon": -73.987691, "id": "725"}, {"name": "34 St-Hudson Yards", "lat": 40.755882, "lon": -74.00191, "id": "726"}, {"name": "Grand Central-42 St", "lat": 40.752769, "lon": -73.979189, "id": "901"}, {"name": "Times Sq-42 St", "lat": 40.755983, "lon": -73.986229, "id": "902"}, {"name": "Inwood-207 St", "lat": 40.868072, "lon": -73.919899, "id": "A02"}, {"name": "Dyckman St", "lat": 40.865491, "lon": -73.927271, "id": "A03"}, {"name": "190 St", "lat": 40.859022, "lon": -73.93418, "id": "A05"}, {"name": "181 St", "lat": 40.851695, "lon": -73.937969, "id": "A06"}, {"name": "175 St", "lat": 40.847391, "lon": -73.939704, "id": "A07"}, {"name": "168 St", "lat": 40.840719, "lon": -73.939561, "id": "A09"}, {"name": "163 St-Amsterdam Av", "lat": 40.836013, "lon": -73.939892, "id": "A10"}, {"name": "155 St", "lat": 40.830518, "lon": -73.941514, "id": "A11"}, {"name": "145 St", "lat": 40.824783, "lon": -73.944216, "id": "A12"}, {"name": "135 St", "lat": 40.817894, "lon": -73.947649, "id": "A14"}, {"name": "125 St", "lat": 40.811109, "lon": -73.952343, "id": "A15"}, {"name": "116 St", "lat": 40.805085, "lon": -73.954882, "id": "A16"}, {"name": "Cathedral Pkwy (110 St)", "lat": 40.800603, "lon": -73.958161, "id": "A17"}, {"name": "103 St", "lat": 40.796092, "lon": -73.961454, "id": "A18"}, {"name": "96 St", "lat": 40.791642, "lon": -73.964696, "id": "A19"}, {"name": "86 St", "lat": 40.785868, "lon": -73.968916, "id": "A20"}, {"name": "81 St-Museum of Natural History", "lat": 40.781433, "lon": -73.972143, "id": "A21"}, {"name": "72 St", "lat": 40.775594, "lon": -73.97641, "id": "A22"}, {"name": "59 St-Columbus Circle", "lat": 40.768296, "lon": -73.981736, "id": "A24"}, {"name": "50 St", "lat": 40.762456, "lon": -73.985984, "id": "A25"}, {"name": "42 St-Port Authority Bus Terminal", "lat": 40.757308, "lon": -73.989735, "id": "A27"}, {"name": "34 St-Penn Station", "lat": 40.752287, "lon": -73.993391, "id": "A28"}, {"name": "23 St", "lat": 40.745906, "lon": -73.998041, "id": "A30"}, {"name": "14 St", "lat": 40.740893, "lon": -74.00169, "id": "A31"}, {"name": "W 4 St-Wash Sq", "lat": 40.732338, "lon": -74.000495, "id": "A32"}, {"name": "Spring St", "lat": 40.726227, "lon": -74.003739, "id": "A33"}, {"name": "Canal St", "lat": 40.720824, "lon": -74.005229, "id": "A34"}, {"name": "Chambers St", "lat": 40.714111, "lon": -74.008585, "id": "A36"}, {"name": "Fulton St", "lat": 40.710197, "lon": -74.007691, "id": "A38"}, {"name": "High St", "lat": 40.699337, "lon": -73.990531, "id": "A40"}, {"name": "Jay St-MetroTech", "lat": 40.692338, "lon": -73.987342, "id": "A41"}, {"name": "Hoyt-Schermerhorn Sts", "lat": 40.688484, "lon": -73.985001, "id": "A42"}, {"name": "Lafayette Av", "lat": 40.686113, "lon": -73.973946, "id": "A43"}, {"name": "Clinton-Washington Avs", "lat": 40.683263, "lon": -73.965838, "id": "A44"}, {"name": "Franklin Av", "lat": 40.68138, "lon": -73.956848, "id": "A45"}, {"name": "Nostrand Av", "lat": 40.680438, "lon": -73.950426, "id": "A46"}, {"name": "Kingston-Throop Avs", "lat": 40.679921, "lon": -73.940858, "id": "A47"}, {"name": "Utica Av", "lat": 40.679364, "lon": -73.930729, "id": "A48"}, {"name": "Ralph Av", "lat": 40.678822, "lon": -73.920786, "id": "A49"}, {"name": "Rockaway Av", "lat": 40.67834, "lon": -73.911946, "id": "A50"}, {"name": "Broadway Junction", "lat": 40.678334, "lon": -73.905316, "id": "A51"}, {"name": "Liberty Av", "lat": 40.674542, "lon": -73.896548, "id": "A52"}, {"name": "Van Siclen Av", "lat": 40.67271, "lon": -73.890358, "id": "A53"}, {"name": "Shepherd Av", "lat": 40.67413, "lon": -73.88075, "id": "A54"}, {"name": "Euclid Av", "lat": 40.675377, "lon": -73.872106, "id": "A55"}, {"name": "Grant Av", "lat": 40.677044, "lon": -73.86505, "id": "A57"}, {"name": "80 St", "lat": 40.679371, "lon": -73.858992, "id": "A59"}, {"name": "88 St", "lat": 40.679843, "lon": -73.85147, "id": "A60"}, {"name": "Rockaway Blvd", "lat": 40.680429, "lon": -73.843853, "id": "A61"}, {"name": "104 St", "lat": 40.681711, "lon": -73.837683, "id": "A63"}, {"name": "111 St", "lat": 40.684331, "lon": -73.832163, "id": "A64"}, {"name": "Ozone Park-Lefferts Blvd", "lat": 40.685951, "lon": -73.825798, "id": "A65"}, {"name": "21 St-Queensbridge", "lat": 40.754203, "lon": -73.942836, "id": "B04"}, {"name": "Roosevelt Island", "lat": 40.759145, "lon": -73.95326, "id": "B06"}, {"name": "Lexington Av/63 St", "lat": 40.764629, "lon": -73.966113, "id": "B08"}, {"name": "57 St", "lat": 40.763972, "lon": -73.97745, "id": "B10"}, {"name": "9 Av", "lat": 40.646292, "lon": -73.994324, "id": "B12"}, {"name": "Fort Hamilton Pkwy", "lat": 40.640914, "lon": -73.994304, "id": "B13"}, {"name": "50 St", "lat": 40.63626, "lon": -73.994791, "id": "B14"}, {"name": "55 St", "lat": 40.631435, "lon": -73.995476, "id": "B15"}, {"name": "62 St", "lat": 40.626472, "lon": -73.996895, "id": "B16"}, {"name": "71 St", "lat": 40.619589, "lon": -73.998864, "id": "B17"}, {"name": "79 St", "lat": 40.613501, "lon": -74.00061, "id": "B18"}, {"name": "18 Av", "lat": 40.607954, "lon": -74.001736, "id": "B19"}, {"name": "20 Av", "lat": 40.604556, "lon": -73.998168, "id": "B20"}, {"name": "Bay Pkwy", "lat": 40.601875, "lon": -73.993728, "id": "B21"}, {"name": "25 Av", "lat": 40.597704, "lon": -73.986829, "id": "B22"}, {"name": "Bay 50 St", "lat": 40.588841, "lon": -73.983765, "id": "B23"}, {"name": "Norwood-205 St", "lat": 40.874811, "lon": -73.878855, "id": "D01"}, {"name": "Bedford Park Blvd", "lat": 40.873244, "lon": -73.887138, "id": "D03"}, {"name": "Kingsbridge Rd", "lat": 40.866978, "lon": -73.893509, "id": "D04"}, {"name": "Fordham Rd", "lat": 40.861296, "lon": -73.897749, "id": "D05"}, {"name": "182-183 Sts", "lat": 40.856093, "lon": -73.900741, "id": "D06"}, {"name": "Tremont Av", "lat": 40.85041, "lon": -73.905227, "id": "D07"}, {"name": "174-175 Sts", "lat": 40.8459, "lon": -73.910136, "id": "D08"}, {"name": "170 St", "lat": 40.839306, "lon": -73.9134, "id": "D09"}, {"name": "167 St", "lat": 40.833771, "lon": -73.91844, "id": "D10"}, {"name": "161 St-Yankee Stadium", "lat": 40.827905, "lon": -73.925651, "id": "D11"}, {"name": "155 St", "lat": 40.830135, "lon": -73.938209, "id": "D12"}, {"name": "145 St", "lat": 40.824783, "lon": -73.944216, "id": "D13"}, {"name": "7 Av", "lat": 40.762862, "lon": -73.981637, "id": "D14"}, {"name": "47-50 Sts-Rockefeller Ctr", "lat": 40.758663, "lon": -73.981329, "id": "D15"}, {"name": "42 St-Bryant Pk", "lat": 40.754222, "lon": -73.984569, "id": "D16"}, {"name": "34 St-Herald Sq", "lat": 40.749719, "lon": -73.987823, "id": "D17"}, {"name": "23 St", "lat": 40.742878, "lon": -73.992821, "id": "D18"}, {"name": "14 St", "lat": 40.738228, "lon": -73.996209, "id": "D19"}, {"name": "W 4 St-Wash Sq", "lat": 40.732338, "lon": -74.000495, "id": "D20"}, {"name": "Broadway-Lafayette St", "lat": 40.725297, "lon": -73.996204, "id": "D21"}, {"name": "Grand St", "lat": 40.718267, "lon": -73.993753, "id": "D22"}, {"name": "Atlantic Av-Barclays Ctr", "lat": 40.68446, "lon": -73.97689, "id": "D24"}, {"name": "7 Av", "lat": 40.67705, "lon": -73.972367, "id": "D25"}, {"name": "Prospect Park", "lat": 40.661614, "lon": -73.962246, "id": "D26"}, {"name": "Parkside Av", "lat": 40.655292, "lon": -73.961495, "id": "D27"}, {"name": "Church Av", "lat": 40.650527, "lon": -73.962982, "id": "D28"}, {"name": "Beverley Rd", "lat": 40.644031, "lon": -73.964492, "id": "D29"}, {"name": "Cortelyou Rd", "lat": 40.640927, "lon": -73.963891, "id": "D30"}, {"name": "Newkirk Plaza", "lat": 40.635082, "lon": -73.962793, "id": "D31"}, {"name": "Avenue H", "lat": 40.62927, "lon": -73.961639, "id": "D32"}, {"name": "Avenue J", "lat": 40.625039, "lon": -73.960803, "id": "D33"}, {"name": "Avenue M", "lat": 40.617618, "lon": -73.959399, "id": "D34"}, {"name": "Kings Hwy", "lat": 40.60867, "lon": -73.957734, "id": "D35"}, {"name": "Avenue U", "lat": 40.5993, "lon": -73.955929, "id": "D37"}, {"name": "Neck Rd", "lat": 40.595246, "lon": -73.955161, "id": "D38"}, {"name": "Sheepshead Bay", "lat": 40.586896, "lon": -73.954155, "id": "D39"}, {"name": "Brighton Beach", "lat": 40.577621, "lon": -73.961376, "id": "D40"}, {"name": "Ocean Pkwy", "lat": 40.576312, "lon": -73.968501, "id": "D41"}, {"name": "W 8 St-NY Aquarium", "lat": 40.576127, "lon": -73.975939, "id": "D42"}, {"name": "Coney Island-Stillwell Av", "lat": 40.577422, "lon": -73.981233, "id": "D43"}, {"name": "World Trade Center", "lat": 40.712582, "lon": -74.009781, "id": "E01"}, {"name": "Jamaica-179 St", "lat": 40.712646, "lon": -73.783817, "id": "F01"}, {"name": "169 St", "lat": 40.71047, "lon": -73.793604, "id": "F02"}, {"name": "Parsons Blvd", "lat": 40.707564, "lon": -73.803326, "id": "F03"}, {"name": "Sutphin Blvd", "lat": 40.70546, "lon": -73.810708, "id": "F04"}, {"name": "Briarwood", "lat": 40.709179, "lon": -73.820574, "id": "F05"}, {"name": "Kew Gardens-Union Tpke", "lat": 40.714441, "lon": -73.831008, "id": "F06"}, {"name": "75 Av", "lat": 40.718331, "lon": -73.837324, "id": "F07"}, {"name": "Court Sq-23 St", "lat": 40.747846, "lon": -73.946, "id": "F09"}, {"name": "Lexington Av/53 St", "lat": 40.757552, "lon": -73.969055, "id": "F11"}, {"name": "5 Av/53 St", "lat": 40.760167, "lon": -73.975224, "id": "F12"}, {"name": "2 Av", "lat": 40.723402, "lon": -73.989938, "id": "F14"}, {"name": "Delancey St-Essex St", "lat": 40.718611, "lon": -73.988114, "id": "F15"}, {"name": "East Broadway", "lat": 40.713715, "lon": -73.990173, "id": "F16"}, {"name": "York St", "lat": 40.701397, "lon": -73.986751, "id": "F18"}, {"name": "Bergen St", "lat": 40.686145, "lon": -73.990862, "id": "F20"}, {"name": "Carroll St", "lat": 40.680303, "lon": -73.995048, "id": "F21"}, {"name": "Smith-9 Sts", "lat": 40.67358, "lon": -73.995959, "id": "F22"}, {"name": "4 Av-9 St", "lat": 40.670272, "lon": -73.989779, "id": "F23"}, {"name": "7 Av", "lat": 40.666271, "lon": -73.980305, "id": "F24"}, {"name": "15 St-Prospect Park", "lat": 40.660365, "lon": -73.979493, "id": "F25"}, {"name": "Fort Hamilton Pkwy", "lat": 40.650782, "lon": -73.975776, "id": "F26"}, {"name": "Church Av", "lat": 40.644041, "lon": -73.979678, "id": "F27"}, {"name": "Ditmas Av", "lat": 40.636119, "lon": -73.978172, "id": "F29"}, {"name": "18 Av", "lat": 40.629755, "lon": -73.976971, "id": "F30"}, {"name": "Avenue I", "lat": 40.625322, "lon": -73.976127, "id": "F31"}, {"name": "Bay Pkwy", "lat": 40.620769, "lon": -73.975264, "id": "F32"}, {"name": "Avenue N", "lat": 40.61514, "lon": -73.974197, "id": "F33"}, {"name": "Avenue P", "lat": 40.608944, "lon": -73.973022, "id": "F34"}, {"name": "Kings Hwy", "lat": 40.603217, "lon": -73.972361, "id": "F35"}, {"name": "Avenue U", "lat": 40.596063, "lon": -73.973357, "id": "F36"}, {"name": "Avenue X", "lat": 40.58962, "lon": -73.97425, "id": "F38"}, {"name": "Neptune Av", "lat": 40.581011, "lon": -73.974574, "id": "F39"}, {"name": "Jamaica Center-Parsons/Archer", "lat": 40.702147, "lon": -73.801109, "id": "G05"}, {"name": "Sutphin Blvd-Archer Av-JFK Airport", "lat": 40.700486, "lon": -73.807969, "id": "G06"}, {"name": "Jamaica-Van Wyck", "lat": 40.702566, "lon": -73.816859, "id": "G07"}, {"name": "Forest Hills-71 Av", "lat": 40.721691, "lon": -73.844521, "id": "G08"}, {"name": "67 Av", "lat": 40.726523, "lon": -73.852719, "id": "G09"}, {"name": "63 Dr-Rego Park", "lat": 40.729846, "lon": -73.861604, "id": "G10"}, {"name": "Woodhaven Blvd", "lat": 40.733106, "lon": -73.869229, "id": "G11"}, {"name": "Grand Av-Newtown", "lat": 40.737015, "lon": -73.877223, "id": "G12"}, {"name": "Elmhurst Av", "lat": 40.742454, "lon": -73.882017, "id": "G13"}, {"name": "Jackson Hts-Roosevelt Av", "lat": 40.746644, "lon": -73.891338, "id": "G14"}, {"name": "65 St", "lat": 40.749669, "lon": -73.898453, "id": "G15"}, {"name": "Northern Blvd", "lat": 40.752885, "lon": -73.906006, "id": "G16"}, {"name": "46 St", "lat": 40.756312, "lon": -73.913333, "id": "G18"}, {"name": "Steinway St", "lat": 40.756879, "lon": -73.92074, "id": "G19"}, {"name": "36 St", "lat": 40.752039, "lon": -73.928781, "id": "G20"}, {"name": "Queens Plaza", "lat": 40.748973, "lon": -73.937243, "id": "G21"}, {"name": "Court Sq", "lat": 40.746554, "lon": -73.943832, "id": "G22"}, {"name": "21 St", "lat": 40.744065, "lon": -73.949724, "id": "G24"}, {"name": "Greenpoint Av", "lat": 40.731352, "lon": -73.954449, "id": "G26"}, {"name": "Nassau Av", "lat": 40.724635, "lon": -73.951277, "id": "G28"}, {"name": "Metropolitan Av", "lat": 40.712792, "lon": -73.951418, "id": "G29"}, {"name": "Broadway", "lat": 40.706092, "lon": -73.950308, "id": "G30"}, {"name": "Flushing Av", "lat": 40.700377, "lon": -73.950234, "id": "G31"}, {"name": "Myrtle-Willoughby Avs", "lat": 40.694568, "lon": -73.949046, "id": "G32"}, {"name": "Bedford-Nostrand Avs", "lat": 40.689627, "lon": -73.953522, "id": "G33"}, {"name": "Classon Av", "lat": 40.688873, "lon": -73.96007, "id": "G34"}, {"name": "Clinton-Washington Avs", "lat": 40.688089, "lon": -73.966839, "id": "G35"}, {"name": "Fulton St", "lat": 40.687119, "lon": -73.975375, "id": "G36"}, {"name": "Aqueduct Racetrack", "lat": 40.672369, "lon": -73.835254, "id": "H01"}, {"name": "Aqueduct-N Conduit Av", "lat": 40.668234, "lon": -73.834058, "id": "H02"}, {"name": "Howard Beach-JFK Airport", "lat": 40.660476, "lon": -73.830301, "id": "H03"}, {"name": "Broad Channel", "lat": 40.608382, "lon": -73.815925, "id": "H04"}, {"name": "Beach 67 St", "lat": 40.590927, "lon": -73.796924, "id": "H06"}, {"name": "Beach 60 St", "lat": 40.592374, "lon": -73.788522, "id": "H07"}, {"name": "Beach 44 St", "lat": 40.592943, "lon": -73.776013, "id": "H08"}, {"name": "Beach 36 St", "lat": 40.595398, "lon": -73.768175, "id": "H09"}, {"name": "Beach 25 St", "lat": 40.600066, "lon": -73.761353, "id": "H10"}, {"name": "Far Rockaway-Mott Av", "lat": 40.603995, "lon": -73.755405, "id": "H11"}, {"name": "Beach 90 St", "lat": 40.588034, "lon": -73.813641, "id": "H12"}, {"name": "Beach 98 St", "lat": 40.585307, "lon": -73.820558, "id": "H13"}, {"name": "Beach 105 St", "lat": 40.583209, "lon": -73.827559, "id": "H14"}, {"name": "Rockaway Park-Beach 116 St", "lat": 40.580903, "lon": -73.835592, "id": "H15"}, {"name": "Broad Channel", "lat": 40.609014, "lon": -73.816024, "id": "H19"}, {"name": "121 St", "lat": 40.700492, "lon": -73.828294, "id": "J12"}, {"name": "111 St", "lat": 40.697418, "lon": -73.836345, "id": "J13"}, {"name": "104 St", "lat": 40.695178, "lon": -73.84433, "id": "J14"}, {"name": "Woodhaven Blvd", "lat": 40.693879, "lon": -73.851576, "id": "J15"}, {"name": "85 St-Forest Pkwy", "lat": 40.692435, "lon": -73.86001, "id": "J16"}, {"name": "75 St-Elderts Ln", "lat": 40.691324, "lon": -73.867139, "id": "J17"}, {"name": "Cypress Hills", "lat": 40.689941, "lon": -73.87255, "id": "J19"}, {"name": "Crescent St", "lat": 40.683194, "lon": -73.873785, "id": "J20"}, {"name": "Norwood Av", "lat": 40.68141, "lon": -73.880039, "id": "J21"}, {"name": "Cleveland St", "lat": 40.679947, "lon": -73.884639, "id": "J22"}, {"name": "Van Siclen Av", "lat": 40.678024, "lon": -73.891688, "id": "J23"}, {"name": "Alabama Av", "lat": 40.676992, "lon": -73.898654, "id": "J24"}, {"name": "Broadway Junction", "lat": 40.679498, "lon": -73.904512, "id": "J27"}, {"name": "Chauncey St", "lat": 40.682893, "lon": -73.910456, "id": "J28"}, {"name": "Halsey St", "lat": 40.68637, "lon": -73.916559, "id": "J29"}, {"name": "Gates Av", "lat": 40.68963, "lon": -73.92227, "id": "J30"}, {"name": "Kosciuszko St", "lat": 40.693342, "lon": -73.928814, "id": "J31"}, {"name": "8 Av", "lat": 40.739777, "lon": -74.002578, "id": "L01"}, {"name": "6 Av", "lat": 40.737335, "lon": -73.996786, "id": "L02"}, {"name": "14 St-Union Sq", "lat": 40.734789, "lon": -73.99073, "id": "L03"}, {"name": "3 Av", "lat": 40.732849, "lon": -73.986122, "id": "L05"}, {"name": "1 Av", "lat": 40.730953, "lon": -73.981628, "id": "L06"}, {"name": "Bedford Av", "lat": 40.717304, "lon": -73.956872, "id": "L08"}, {"name": "Lorimer St", "lat": 40.714063, "lon": -73.950275, "id": "L10"}, {"name": "Graham Av", "lat": 40.714565, "lon": -73.944053, "id": "L11"}, {"name": "Grand St", "lat": 40.711926, "lon": -73.94067, "id": "L12"}, {"name": "Montrose Av", "lat": 40.707739, "lon": -73.93985, "id": "L13"}, {"name": "Morgan Av", "lat": 40.706152, "lon": -73.933147, "id": "L14"}, {"name": "Jefferson St", "lat": 40.706607, "lon": -73.922913, "id": "L15"}, {"name": "DeKalb Av", "lat": 40.703811, "lon": -73.918425, "id": "L16"}, {"name": "Myrtle-Wyckoff Avs", "lat": 40.699814, "lon": -73.911586, "id": "L17"}, {"name": "Halsey St", "lat": 40.695602, "lon": -73.904084, "id": "L19"}, {"name": "Wilson Av", "lat": 40.688764, "lon": -73.904046, "id": "L20"}, {"name": "Bushwick Av-Aberdeen St", "lat": 40.682829, "lon": -73.905249, "id": "L21"}, {"name": "Broadway Junction", "lat": 40.678856, "lon": -73.90324, "id": "L22"}, {"name": "Atlantic Av", "lat": 40.675345, "lon": -73.903097, "id": "L24"}, {"name": "Sutter Av", "lat": 40.669367, "lon": -73.901975, "id": "L25"}, {"name": "Livonia Av", "lat": 40.664038, "lon": -73.900571, "id": "L26"}, {"name": "New Lots Av", "lat": 40.658733, "lon": -73.899232, "id": "L27"}, {"name": "East 105 St", "lat": 40.650573, "lon": -73.899485, "id": "L28"}, {"name": "Canarsie-Rockaway Pkwy", "lat": 40.646654, "lon": -73.90185, "id": "L29"}, {"name": "Middle Village-Metropolitan Av", "lat": 40.711396, "lon": -73.889601, "id": "M01"}, {"name": "Fresh Pond Rd", "lat": 40.706186, "lon": -73.895877, "id": "M04"}, {"name": "Forest Av", "lat": 40.704423, "lon": -73.903077, "id": "M05"}, {"name": "Seneca Av", "lat": 40.702762, "lon": -73.90774, "id": "M06"}, {"name": "Myrtle-Wyckoff Avs", "lat": 40.69943, "lon": -73.912385, "id": "M08"}, {"name": "Knickerbocker Av", "lat": 40.698664, "lon": -73.919711, "id": "M09"}, {"name": "Central Av", "lat": 40.697857, "lon": -73.927397, "id": "M10"}, {"name": "Myrtle Av", "lat": 40.697207, "lon": -73.935657, "id": "M11"}, {"name": "Flushing Av", "lat": 40.70026, "lon": -73.941126, "id": "M12"}, {"name": "Lorimer St", "lat": 40.703869, "lon": -73.947408, "id": "M13"}, {"name": "Hewes St", "lat": 40.70687, "lon": -73.953431, "id": "M14"}, {"name": "Marcy Av", "lat": 40.708359, "lon": -73.957757, "id": "M16"}, {"name": "Delancey St-Essex St", "lat": 40.718315, "lon": -73.987437, "id": "M18"}, {"name": "Bowery", "lat": 40.72028, "lon": -73.993915, "id": "M19"}, {"name": "Canal St", "lat": 40.718092, "lon": -73.999892, "id": "M20"}, {"name": "Chambers St", "lat": 40.713243, "lon": -74.003401, "id": "M21"}, {"name": "Fulton St", "lat": 40.710374, "lon": -74.007582, "id": "M22"}, {"name": "Broad St", "lat": 40.706476, "lon": -74.011056, "id": "M23"}, {"name": "8 Av", "lat": 40.635064, "lon": -74.011719, "id": "N02"}, {"name": "Fort Hamilton Pkwy", "lat": 40.631386, "lon": -74.005351, "id": "N03"}, {"name": "New Utrecht Av", "lat": 40.624842, "lon": -73.996353, "id": "N04"}, {"name": "18 Av", "lat": 40.620671, "lon": -73.990414, "id": "N05"}, {"name": "20 Av", "lat": 40.61741, "lon": -73.985026, "id": "N06"}, {"name": "Bay Pkwy", "lat": 40.611815, "lon": -73.981848, "id": "N07"}, {"name": "Kings Hwy", "lat": 40.603923, "lon": -73.980353, "id": "N08"}, {"name": "Avenue U", "lat": 40.597473, "lon": -73.979137, "id": "N09"}, {"name": "86 St", "lat": 40.592721, "lon": -73.97823, "id": "N10"}, {"name": "S.B. Coney Island", "lat": 40.577422, "lon": -73.981233, "id": "N12"}, {"name": "Canal St", "lat": 40.718383, "lon": -74.00046, "id": "Q01"}, {"name": "72 St", "lat": 40.768799, "lon": -73.958424, "id": "Q03"}, {"name": "86 St", "lat": 40.777891, "lon": -73.951787, "id": "Q04"}, {"name": "96 St", "lat": 40.784318, "lon": -73.947152, "id": "Q05"}, {"name": "Astoria-Ditmars Blvd", "lat": 40.775036, "lon": -73.912034, "id": "R01"}, {"name": "Astoria Blvd", "lat": 40.770258, "lon": -73.917843, "id": "R03"}, {"name": "30 Av", "lat": 40.766779, "lon": -73.921479, "id": "R04"}, {"name": "Broadway", "lat": 40.76182, "lon": -73.925508, "id": "R05"}, {"name": "36 Av", "lat": 40.756804, "lon": -73.929575, "id": "R06"}, {"name": "39 Av-Dutch Kills", "lat": 40.752882, "lon": -73.932755, "id": "R08"}, {"name": "Queensboro Plaza", "lat": 40.750582, "lon": -73.940202, "id": "R09"}, {"name": "Lexington Av/59 St", "lat": 40.76266, "lon": -73.967258, "id": "R11"}, {"name": "5 Av/59 St", "lat": 40.764811, "lon": -73.973347, "id": "R13"}, {"name": "57 St-7 Av", "lat": 40.764664, "lon": -73.980658, "id": "R14"}, {"name": "49 St", "lat": 40.759901, "lon": -73.984139, "id": "R15"}, {"name": "Times Sq-42 St", "lat": 40.754672, "lon": -73.986754, "id": "R16"}, {"name": "34 St-Herald Sq", "lat": 40.749567, "lon": -73.98795, "id": "R17"}, {"name": "28 St", "lat": 40.745494, "lon": -73.988691, "id": "R18"}, {"name": "23 St", "lat": 40.741303, "lon": -73.989344, "id": "R19"}, {"name": "14 St-Union Sq", "lat": 40.735736, "lon": -73.990568, "id": "R20"}, {"name": "8 St-NYU", "lat": 40.730328, "lon": -73.992629, "id": "R21"}, {"name": "Prince St", "lat": 40.724329, "lon": -73.997702, "id": "R22"}, {"name": "Canal St", "lat": 40.719527, "lon": -74.001775, "id": "R23"}, {"name": "City Hall", "lat": 40.713282, "lon": -74.006978, "id": "R24"}, {"name": "Cortlandt St", "lat": 40.710668, "lon": -74.011029, "id": "R25"}, {"name": "Rector St", "lat": 40.70722, "lon": -74.013342, "id": "R26"}, {"name": "Whitehall St-South Ferry", "lat": 40.703087, "lon": -74.012994, "id": "R27"}, {"name": "Court St", "lat": 40.6941, "lon": -73.991777, "id": "R28"}, {"name": "Jay St-MetroTech", "lat": 40.69218, "lon": -73.985942, "id": "R29"}, {"name": "DeKalb Av", "lat": 40.690635, "lon": -73.981824, "id": "R30"}, {"name": "Atlantic Av-Barclays Ctr", "lat": 40.683666, "lon": -73.97881, "id": "R31"}, {"name": "Union St", "lat": 40.677316, "lon": -73.98311, "id": "R32"}, {"name": "4 Av-9 St", "lat": 40.670847, "lon": -73.988302, "id": "R33"}, {"name": "Prospect Av", "lat": 40.665414, "lon": -73.992872, "id": "R34"}, {"name": "25 St", "lat": 40.660397, "lon": -73.998091, "id": "R35"}, {"name": "36 St", "lat": 40.655144, "lon": -74.003549, "id": "R36"}, {"name": "45 St", "lat": 40.648939, "lon": -74.010006, "id": "R39"}, {"name": "53 St", "lat": 40.645069, "lon": -74.014034, "id": "R40"}, {"name": "59 St", "lat": 40.641362, "lon": -74.017881, "id": "R41"}, {"name": "Bay Ridge Av", "lat": 40.634967, "lon": -74.023377, "id": "R42"}, {"name": "77 St", "lat": 40.629742, "lon": -74.02551, "id": "R43"}, {"name": "86 St", "lat": 40.622687, "lon": -74.028398, "id": "R44"}, {"name": "Bay Ridge-95 St", "lat": 40.616622, "lon": -74.030876, "id": "R45"}, {"name": "Franklin Av", "lat": 40.680596, "lon": -73.955827, "id": "S01"}, {"name": "Park Pl", "lat": 40.674772, "lon": -73.957624, "id": "S03"}, {"name": "Botanic Garden", "lat": 40.670343, "lon": -73.959245, "id": "S04"}, {"name": "Tottenville", "lat": 40.512764, "lon": -74.251961, "id": "S09"}, {"name": "Arthur Kill", "lat": 40.516578, "lon": -74.242096, "id": "S11"}, {"name": "Richmond Valley", "lat": 40.519631, "lon": -74.229141, "id": "S13"}, {"name": "Pleasant Plains", "lat": 40.52241, "lon": -74.217847, "id": "S14"}, {"name": "Prince's Bay", "lat": 40.525507, "lon": -74.200064, "id": "S15"}, {"name": "Huguenot", "lat": 40.533674, "lon": -74.191794, "id": "S16"}, {"name": "Annadale", "lat": 40.54046, "lon": -74.178217, "id": "S17"}, {"name": "Eltingville", "lat": 40.544601, "lon": -74.16457, "id": "S18"}, {"name": "Great Kills", "lat": 40.551231, "lon": -74.151399, "id": "S19"}, {"name": "Bay Terrace", "lat": 40.5564, "lon": -74.136907, "id": "S20"}, {"name": "Oakwood Heights", "lat": 40.56511, "lon": -74.12632, "id": "S21"}, {"name": "New Dorp", "lat": 40.57348, "lon": -74.11721, "id": "S22"}, {"name": "Grant City", "lat": 40.578965, "lon": -74.109704, "id": "S23"}, {"name": "Jefferson Av", "lat": 40.583591, "lon": -74.103338, "id": "S24"}, {"name": "Dongan Hills", "lat": 40.588849, "lon": -74.09609, "id": "S25"}, {"name": "Old Town", "lat": 40.596612, "lon": -74.087368, "id": "S26"}, {"name": "Grasmere", "lat": 40.603117, "lon": -74.084087, "id": "S27"}, {"name": "Clifton", "lat": 40.621319, "lon": -74.071402, "id": "S28"}, {"name": "Stapleton", "lat": 40.627915, "lon": -74.075162, "id": "S29"}, {"name": "Tompkinsville", "lat": 40.636949, "lon": -74.074835, "id": "S30"}, {"name": "St George", "lat": 40.643748, "lon": -74.073643, "id": "S31"}], "edges": [{"weight": 90, "route_id": "1", "source": "101", "target": "103"}, {"weight": 90, "route_id": "1", "source": "103", "target": "104"}, {"weight": 90, "route_id": "1", "source": "103", "target": "101"}, {"weight": 90, "route_id": "1", "source": "104", "target": "106"}, {"weight": 90, "route_id": "1", "source": "104", "target": "103"}, {"weight": 90, "route_id": "1", "source": "106", "target": "107"}, {"weight": 90, "route_id": "1", "source": "106", "target": "104"}, {"weight": 60, "route_id": "1", "source": "107", "target": "108"}, {"weight": 90, "route_id": "1", "source": "107", "target": "106"}, {"weight": 90, "route_id": "1", "source": "108", "target": "109"}, {"weight": 90, "route_id": "1", "source": "108", "target": "107"}, {"weight": 90, "route_id": "1", "source": "109", "target": "110"}, {"weight": 90, "route_id": "1", "source": "109", "target": "108"}, {"weight": 90, "route_id": "1", "source": "110", "target": "111"}, {"weight": 60, "route_id": "1", "source": "110", "target": "109"}, {"weight": 120, "route_id": "1", "source": "111", "target": "112"}, {"weight": 90, "route_id": "1", "source": "111", "target": "110"}, {"weight": 90, "route_id": "1", "source": "112", "target": "113"}, {"weight": 120, "route_id": "1", "source": "112", "target": "111"}, {"weight": 180, "transfer": true, "source": "112", "target": "A09"}, {"weight": 120, "route_id": "1", "source": "113", "target": "114"}, {"weight": 90, "route_id": "1", "source": "113", "target": "112"}, {"weight": 90, "route_id": "1", "source": "114", "target": "115"}, {"weight": 120, "route_id": "1", "source": "114", "target": "113"}, {"weight": 90, "route_id": "1", "source": "115", "target": "116"}, {"weight": 90, "route_id": "1", "source": "115", "target": "114"}, {"weight": 120, "route_id": "1", "source": "116", "target": "117"}, {"weight": 90, "route_id": "1", "source": "116", "target": "115"}, {"weight": 60, "route_id": "1", "source": "117", "target": "118"}, {"weight": 150, "route_id": "1", "source": "117", "target": "116"}, {"weight": 60, "route_id": "1", "source": "118", "target": "119"}, {"weight": 60, "route_id": "1", "source": "118", "target": "117"}, {"weight": 120, "route_id": "1", "source": "119", "target": "120"}, {"weight": 60, "route_id": "1", "source": "119", "target": "118"}, {"weight": 120, "route_id": "2", "source": "120", "target": "121"}, {"weight": 90, "route_id": "1", "source": "120", "target": "119"}, {"weight": 270, "route_id": "3", "source": "120", "target": "227"}, {"weight": 150, "route_id": "3", "source": "120", "target": "123"}, {"weight": 60, "route_id": "2", "source": "121", "target": "122"}, {"weight": 90, "route_id": "2", "source": "121", "target": "120"}, {"weight": 90, "route_id": "2", "source": "122", "target": "123"}, {"weight": 90, "route_id": "2", "source": "122", "target": "121"}, {"weight": 90, "route_id": "2", "source": "123", "target": "124"}, {"weight": 90, "route_id": "2", "source": "123", "target": "122"}, {"weight": 240, "route_id": "3", "source": "123", "target": "127"}, {"weight": 180, "route_id": "3", "source": "123", "target": "120"}, {"weight": 90, "route_id": "2", "source": "124", "target": "125"}, {"weight": 60, "route_id": "2", "source": "124", "target": "123"}, {"weight": 120, "route_id": "2", "source": "125", "target": "126"}, {"weight": 90, "route_id": "2", "source": "125", "target": "124"}, {"weight": 180, "transfer": true, "source": "125", "target": "A24"}, {"weight": 90, "route_id": "2", "source": "126", "target": "127"}, {"weight": 120, "route_id": "2", "source": "126", "target": "125"}, {"weight": 60, "route_id": "3", "source": "127", "target": "128"}, {"weight": 120, "route_id": "2", "source": "127", "target": "126"}, {"weight": 240, "route_id": "3", "source": "127", "target": "123"}, {"weight": 180, "transfer": true, "source": "127", "target": "725"}, {"weight": 180, "transfer": true, "source": "127", "target": "902"}, {"weight": 300, "transfer": true, "source": "127", "target": "A27"}, {"weight": 180, "transfer": true, "source": "127", "target": "R16"}, {"weight": 60, "route_id": "2", "source": "128", "target": "129"}, {"weight": 60, "route_id": "3", "source": "128", "target": "127"}, {"weight": 180, "route_id": "3", "source": "128", "target": "132"}, {"weight": 60, "route_id": "2", "source": "129", "target": "130"}, {"weight": 90, "route_id": "2", "source": "129", "target": "128"}, {"weight": 60, "route_id": "2", "source": "130", "target": "131"}, {"weight": 60, "route_id": "2", "source": "130", "target": "129"}, {"weight": 60, "route_id": "2", "source": "131", "target": "132"}, {"weight": 60, "route_id": "2", "source": "131", "target": "130"}, {"weight": 90, "route_id": "2", "source": "132", "target": "133"}, {"weight": 60, "route_id": "2", "source": "132", "target": "131"}, {"weight": 270, "route_id": "3", "source": "132", "target": "137"}, {"weight": 150, "route_id": "3", "source": "132", "target": "128"}, {"weight": 300, "transfer": true, "source": "132", "target": "D19"}, {"weight": 180, "transfer": true, "source": "132", "target": "L02"}, {"weight": 90, "route_id": "2", "source": "133", "target": "134"}, {"weight": 90, "route_id": "2", "source": "133", "target": "132"}, {"weight": 120, "route_id": "2", "source": "134", "target": "135"}, {"weight": 90, "route_id": "2", "source": "134", "target": "133"}, {"weight": 60, "route_id": "2", "source": "135", "target": "136"}, {"weight": 90, "route_id": "2", "source": "135", "target": "134"}, {"weight": 60, "route_id": "2", "source": "136", "target": "137"}, {"weight": 60, "route_id": "2", "source": "136", "target": "135"}, {"weight": 60, "route_id": "1", "source": "137", "target": "138"}, {"weight": 90, "route_id": "2", "source": "137", "target": "136"}, {"weight": 60, "route_id": "3", "source": "137", "target": "228"}, {"weight": 270, "route_id": "3", "source": "137", "target": "132"}, {"weight": 90, "route_id": "1", "source": "138", "target": "139"}, {"weight": 60, "route_id": "1", "source": "138", "target": "137"}, {"weight": 90, "route_id": "1", "source": "139", "target": "142"}, {"weight": 90, "route_id": "1", "source": "139", "target": "138"}, {"weight": 120, "transfer": true, "source": "140", "target": "R27"}, {"weight": 90, "route_id": "1", "source": "142", "target": "139"}, {"weight": 90, "route_id": "2", "source": "201", "target": "204"}, {"weight": 90, "route_id": "5", "source": "204", "target": "205"}, {"weight": 120, "route_id": "2", "source": "204", "target": "201"}, {"weight": 90, "route_id": "5", "source": "205", "target": "206"}, {"weight": 90, "route_id": "5", "source": "205", "target": "204"}, {"weight": 90, "route_id": "5", "source": "206", "target": "207"}, {"weight": 90, "route_id": "5", "source": "206", "target": "205"}, {"weight": 120, "route_id": "5", "source": "207", "target": "208"}, {"weight": 90, "route_id": "5", "source": "207", "target": "206"}, {"weight": 90, "route_id": "5", "source": "208", "target": "209"}, {"weight": 90, "route_id": "5", "source": "208", "target": "207"}, {"weight": 90, "route_id": "5", "source": "209", "target": "210"}, {"weight": 120, "route_id": "5", "source": "209", "target": "208"}, {"weight": 150, "route_id": "5", "source": "210", "target": "211"}, {"weight": 90, "route_id": "5", "source": "210", "target": "209"}, {"weight": 150, "route_id": "5", "source": "211", "target": "212"}, {"weight": 120, "route_id": "5", "source": "211", "target": "210"}, {"weight": 120, "route_id": "5", "source": "212", "target": "213"}, {"weight": 150, "route_id": "5", "source": "212", "target": "211"}, {"weight": 90, "route_id": "5", "source": "213", "target": "214"}, {"weight": 120, "route_id": "5", "source": "213", "target": "212"}, {"weight": 210, "route_id": "5", "source": "213", "target": "505"}, {"weight": 750, "route_id": "5", "source": "213", "target": "221"}, {"weight": 480, "route_id": "5", "source": "213", "target": "208"}, {"weight": 120, "route_id": "5", "source": "214", "target": "215"}, {"weight": 90, "route_id": "5", "source": "214", "target": "213"}, {"weight": 150, "route_id": "5", "source": "215", "target": "216"}, {"weight": 120, "route_id": "5", "source": "215", "target": "214"}, {"weight": 90, "route_id": "5", "source": "216", "target": "217"}, {"weight": 150, "route_id": "5", "source": "216", "target": "215"}, {"weight": 60, "route_id": "5", "source": "217", "target": "218"}, {"weight": 90, "route_id": "5", "source": "217", "target": "216"}, {"weight": 90, "route_id": "5", "source": "218", "target": "219"}, {"weight": 60, "route_id": "5", "source": "218", "target": "217"}, {"weight": 90, "route_id": "5", "source": "219", "target": "220"}, {"weight": 90, "route_id": "5", "source": "219", "target": "218"}, {"weight": 150, "route_id": "5", "source": "220", "target": "221"}, {"weight": 90, "route_id": "5", "source": "220", "target": "219"}, {"weight": 120, "route_id": "5", "source": "221", "target": "222"}, {"weight": 150, "route_id": "5", "source": "221", "target": "220"}, {"weight": 720, "route_id": "5", "source": "221", "target": "213"}, {"weight": 180, "route_id": "2", "source": "222", "target": "224"}, {"weight": 120, "route_id": "5", "source": "222", "target": "221"}, {"weight": 180, "route_id": "5", "source": "222", "target": "416"}, {"weight": 180, "transfer": true, "source": "222", "target": "415"}, {"weight": 90, "route_id": "3", "source": "224", "target": "225"}, {"weight": 210, "route_id": "2", "source": "224", "target": "222"}, {"weight": 120, "route_id": "3", "source": "224", "target": "302"}, {"weight": 90, "route_id": "3", "source": "225", "target": "226"}, {"weight": 120, "route_id": "3", "source": "225", "target": "224"}, {"weight": 60, "route_id": "3", "source": "226", "target": "227"}, {"weight": 90, "route_id": "3", "source": "226", "target": "225"}, {"weight": 270, "route_id": "3", "source": "227", "target": "120"}, {"weight": 60, "route_id": "3", "source": "227", "target": "226"}, {"weight": 150, "route_id": "3", "source": "228", "target": "229"}, {"weight": 60, "route_id": "3", "source": "228", "target": "137"}, {"weight": 180, "transfer": true, "source": "228", "target": "A36"}, {"weight": 180, "transfer": true, "source": "228", "target": "E01"}, {"weight": 420, "transfer": true, "source": "228", "target": "R25"}, {"weight": 60, "route_id": "3", "source": "229", "target": "230"}, {"weight": 150, "route_id": "3", "source": "229", "target": "228"}, {"weight": 300, "transfer": true, "source": "229", "target": "418"}, {"weight": 180, "transfer": true, "source": "229", "target": "A38"}, {"weight": 300, "transfer": true, "source": "229", "target": "M22"}, {"weight": 270, "route_id": "3", "source": "230", "target": "231"}, {"weight": 60, "route_id": "3", "source": "230", "target": "229"}, {"weight": 60, "route_id": "3", "source": "231", "target": "232"}, {"weight": 210, "route_id": "3", "source": "231", "target": "230"}, {"weight": 90, "route_id": "3", "source": "232", "target": "233"}, {"weight": 90, "route_id": "3", "source": "232", "target": "231"}, {"weight": 300, "transfer": true, "source": "232", "target": "423"}, {"weight": 180, "transfer": true, "source": "232", "target": "R28"}, {"weight": 60, "route_id": "3", "source": "233", "target": "234"}, {"weight": 90, "route_id": "3", "source": "233", "target": "232"}, {"weight": 90, "route_id": "5", "source": "234", "target": "235"}, {"weight": 90, "route_id": "3", "source": "234", "target": "233"}, {"weight": 90, "route_id": "5", "source": "234", "target": "423"}, {"weight": 60, "route_id": "4", "source": "235", "target": "236"}, {"weight": 90, "route_id": "5", "source": "235", "target": "234"}, {"weight": 240, "route_id": "5", "source": "235", "target": "239"}, {"weight": 180, "transfer": true, "source": "235", "target": "D24"}, {"weight": 180, "transfer": true, "source": "235", "target": "R31"}, {"weight": 120, "route_id": "4", "source": "236", "target": "237"}, {"weight": 90, "route_id": "4", "source": "236", "target": "235"}, {"weight": 120, "route_id": "4", "source": "237", "target": "238"}, {"weight": 120, "route_id": "4", "source": "237", "target": "236"}, {"weight": 90, "route_id": "4", "source": "238", "target": "239"}, {"weight": 120, "route_id": "4", "source": "238", "target": "237"}, {"weight": 180, "route_id": "5", "source": "239", "target": "241"}, {"weight": 120, "route_id": "4", "source": "239", "target": "238"}, {"weight": 90, "route_id": "4", "source": "239", "target": "248"}, {"weight": 240, "route_id": "5", "source": "239", "target": "250"}, {"weight": 300, "route_id": "5", "source": "239", "target": "235"}, {"weight": 180, "transfer": true, "source": "239", "target": "S04"}, {"weight": 90, "route_id": "5", "source": "241", "target": "242"}, {"weight": 180, "route_id": "5", "source": "241", "target": "239"}, {"weight": 90, "route_id": "5", "source": "242", "target": "243"}, {"weight": 90, "route_id": "5", "source": "242", "target": "241"}, {"weight": 90, "route_id": "5", "source": "243", "target": "244"}, {"weight": 90, "route_id": "5", "source": "243", "target": "242"}, {"weight": 90, "route_id": "5", "source": "244", "target": "245"}, {"weight": 90, "route_id": "5", "source": "244", "target": "243"}, {"weight": 90, "route_id": "5", "source": "245", "target": "246"}, {"weight": 90, "route_id": "5", "source": "245", "target": "244"}, {"weight": 120, "route_id": "5", "source": "246", "target": "247"}, {"weight": 90, "route_id": "5", "source": "246", "target": "245"}, {"weight": 120, "route_id": "5", "source": "247", "target": "246"}, {"weight": 90, "route_id": "4", "source": "248", "target": "249"}, {"weight": 90, "route_id": "5", "source": "248", "target": "239"}, {"weight": 120, "route_id": "4", "source": "249", "target": "250"}, {"weight": 120, "route_id": "5", "source": "249", "target": "248"}, {"weight": 150, "route_id": "4", "source": "250", "target": "251"}, {"weight": 120, "route_id": "5", "source": "250", "target": "249"}, {"weight": 300, "route_id": "5", "source": "250", "target": "239"}, {"weight": 90, "route_id": "4", "source": "251", "target": "252"}, {"weight": 180, "route_id": "5", "source": "251", "target": "250"}, {"weight": 120, "route_id": "4", "source": "252", "target": "253"}, {"weight": 120, "route_id": "5", "source": "252", "target": "251"}, {"weight": 60, "route_id": "4", "source": "253", "target": "254"}, {"weight": 90, "route_id": "5", "source": "253", "target": "252"}, {"weight": 90, "route_id": "4", "source": "254", "target": "255"}, {"weight": 90, "route_id": "5", "source": "254", "target": "253"}, {"weight": 300, "transfer": true, "source": "254", "target": "L26"}, {"weight": 60, "route_id": "4", "source": "255", "target": "256"}, {"weight": 90, "route_id": "5", "source": "255", "target": "254"}, {"weight": 90, "route_id": "4", "source": "256", "target": "257"}, {"weight": 90, "route_id": "5", "source": "256", "target": "255"}, {"weight": 90, "route_id": "5", "source": "257", "target": "256"}, {"weight": 120, "route_id": "3", "source": "301", "target": "302"}, {"weight": 120, "route_id": "3", "source": "302", "target": "224"}, {"weight": 120, "route_id": "3", "source": "302", "target": "301"}, {"weight": 120, "route_id": "4", "source": "401", "target": "402"}, {"weight": 120, "route_id": "4", "source": "402", "target": "405"}, {"weight": 120, "route_id": "4", "source": "402", "target": "401"}, {"weight": 120, "route_id": "4", "source": "405", "target": "406"}, {"weight": 120, "route_id": "4", "source": "405", "target": "402"}, {"weight": 60, "route_id": "4", "source": "406", "target": "407"}, {"weight": 120, "route_id": "4", "source": "406", "target": "405"}, {"weight": 60, "route_id": "4", "source": "407", "target": "408"}, {"weight": 90, "route_id": "4", "source": "407", "target": "406"}, {"weight": 90, "route_id": "4", "source": "408", "target": "409"}, {"weight": 60, "route_id": "4", "source": "408", "target": "407"}, {"weight": 90, "route_id": "4", "source": "409", "target": "410"}, {"weight": 90, "route_id": "4", "source": "409", "target": "408"}, {"weight": 90, "route_id": "4", "source": "410", "target": "411"}, {"weight": 90, "route_id": "4", "source": "410", "target": "409"}, {"weight": 60, "route_id": "4", "source": "411", "target": "412"}, {"weight": 60, "route_id": "4", "source": "411", "target": "410"}, {"weight": 90, "route_id": "4", "source": "412", "target": "413"}, {"weight": 60, "route_id": "4", "source": "412", "target": "411"}, {"weight": 120, "route_id": "4", "source": "413", "target": "414"}, {"weight": 90, "route_id": "4", "source": "413", "target": "412"}, {"weight": 300, "route_id": "4", "source": "413", "target": "409"}, {"weight": 180, "route_id": "4", "source": "414", "target": "415"}, {"weight": 90, "route_id": "4", "source": "414", "target": "413"}, {"weight": 180, "transfer": true, "source": "414", "target": "D11"}, {"weight": 120, "route_id": "4", "source": "415", "target": "416"}, {"weight": 150, "route_id": "4", "source": "415", "target": "414"}, {"weight": 450, "route_id": "4", "source": "415", "target": "621"}, {"weight": 180, "transfer": true, "source": "415", "target": "222"}, {"weight": 120, "route_id": "5", "source": "416", "target": "621"}, {"weight": 120, "route_id": "4", "source": "416", "target": "415"}, {"weight": 180, "route_id": "5", "source": "416", "target": "222"}, {"weight": 60, "route_id": "5", "source": "418", "target": "419"}, {"weight": 120, "route_id": "5", "source": "418", "target": "640"}, {"weight": 300, "transfer": true, "source": "418", "target": "229"}, {"weight": 180, "transfer": true, "source": "418", "target": "A38"}, {"weight": 300, "transfer": true, "source": "418", "target": "M22"}, {"weight": 90, "route_id": "5", "source": "419", "target": "420"}, {"weight": 60, "route_id": "5", "source": "419", "target": "418"}, {"weight": 300, "route_id": "5", "source": "420", "target": "423"}, {"weight": 90, "route_id": "5", "source": "420", "target": "419"}, {"weight": 120, "route_id": "5", "source": "423", "target": "234"}, {"weight": 300, "route_id": "5", "source": "423", "target": "420"}, {"weight": 300, "transfer": true, "source": "423", "target": "232"}, {"weight": 180, "transfer": true, "source": "423", "target": "R28"}, {"weight": 120, "route_id": "5", "source": "501", "target": "502"}, {"weight": 150, "route_id": "5", "source": "502", "target": "503"}, {"weight": 150, "route_id": "5", "source": "502", "target": "501"}, {"weight": 150, "route_id": "5", "source": "503", "target": "504"}, {"weight": 120, "route_id": "5", "source": "503", "target": "502"}, {"weight": 60, "route_id": "5", "source": "504", "target": "505"}, {"weight": 180, "route_id": "5", "source": "504", "target": "503"}, {"weight": 180, "route_id": "5", "source": "505", "target": "213"}, {"weight": 60, "route_id": "5", "source": "505", "target": "504"}, {"weight": 150, "route_id": "6", "source": "601", "target": "602"}, {"weight": 60, "route_id": "6", "source": "602", "target": "603"}, {"weight": 150, "route_id": "6", "source": "602", "target": "601"}, {"weight": 90, "route_id": "6", "source": "603", "target": "604"}, {"weight": 60, "route_id": "6", "source": "603", "target": "602"}, {"weight": 90, "route_id": "6", "source": "604", "target": "606"}, {"weight": 90, "route_id": "6", "source": "604", "target": "603"}, {"weight": 60, "route_id": "6", "source": "606", "target": "607"}, {"weight": 60, "route_id": "6", "source": "606", "target": "604"}, {"weight": 120, "route_id": "6", "source": "607", "target": "608"}, {"weight": 60, "route_id": "6", "source": "607", "target": "606"}, {"weight": 90, "route_id": "6", "source": "608", "target": "609"}, {"weight": 120, "route_id": "6", "source": "608", "target": "607"}, {"weight": 330, "route_id": "6", "source": "608", "target": "613"}, {"weight": 90, "route_id": "6", "source": "609", "target": "610"}, {"weight": 90, "route_id": "6", "source": "609", "target": "608"}, {"weight": 60, "route_id": "6", "source": "610", "target": "611"}, {"weight": 60, "route_id": "6", "source": "610", "target": "609"}, {"weight": 90, "route_id": "6", "source": "611", "target": "612"}, {"weight": 60, "route_id": "6", "source": "611", "target": "610"}, {"weight": 120, "route_id": "6", "source": "612", "target": "613"}, {"weight": 120, "route_id": "6", "source": "612", "target": "611"}, {"weight": 90, "route_id": "6", "source": "613", "target": "614"}, {"weight": 90, "route_id": "6", "source": "613", "target": "612"}, {"weight": 420, "route_id": "6", "source": "613", "target": "619"}, {"weight": 300, "route_id": "6", "source": "613", "target": "608"}, {"weight": 120, "route_id": "6", "source": "614", "target": "615"}, {"weight": 120, "route_id": "6", "source": "614", "target": "613"}, {"weight": 60, "route_id": "6", "source": "615", "target": "616"}, {"weight": 90, "route_id": "6", "source": "615", "target": "614"}, {"weight": 120, "route_id": "6", "source": "616", "target": "617"}, {"weight": 90, "route_id": "6", "source": "616", "target": "615"}, {"weight": 60, "route_id": "6", "source": "617", "target": "618"}, {"weight": 120, "route_id": "6", "source": "617", "target": "616"}, {"weight": 90, "route_id": "6", "source": "618", "target": "619"}, {"weight": 60, "route_id": "6", "source": "618", "target": "617"}, {"weight": 180, "route_id": "6", "source": "619", "target": "621"}, {"weight": 90, "route_id": "6", "source": "619", "target": "618"}, {"weight": 420, "route_id": "6", "source": "619", "target": "613"}, {"weight": 270, "route_id": "5", "source": "621", "target": "626"}, {"weight": 90, "route_id": "6", "source": "621", "target": "622"}, {"weight": 180, "route_id": "5", "source": "621", "target": "416"}, {"weight": 300, "route_id": "4", "source": "621", "target": "415"}, {"weight": 180, "route_id": "6", "source": "621", "target": "619"}, {"weight": 90, "route_id": "6", "source": "622", "target": "623"}, {"weight": 90, "route_id": "6", "source": "622", "target": "621"}, {"weight": 60, "route_id": "6", "source": "623", "target": "624"}, {"weight": 90, "route_id": "6", "source": "623", "target": "622"}, {"weight": 90, "route_id": "6", "source": "624", "target": "625"}, {"weight": 60, "route_id": "6", "source": "624", "target": "623"}, {"weight": 120, "route_id": "6", "source": "625", "target": "626"}, {"weight": 90, "route_id": "6", "source": "625", "target": "624"}, {"weight": 210, "route_id": "5", "source": "626", "target": "629"}, {"weight": 90, "route_id": "6", "source": "626", "target": "627"}, {"weight": 120, "route_id": "6", "source": "626", "target": "625"}, {"weight": 300, "route_id": "5", "source": "626", "target": "621"}, {"weight": 120, "route_id": "6", "source": "627", "target": "628"}, {"weight": 90, "route_id": "6", "source": "627", "target": "626"}, {"weight": 90, "route_id": "6", "source": "628", "target": "629"}, {"weight": 90, "route_id": "6", "source": "628", "target": "627"}, {"weight": 150, "route_id": "5", "source": "629", "target": "631"}, {"weight": 90, "route_id": "6", "source": "629", "target": "630"}, {"weight": 120, "route_id": "6", "source": "629", "target": "628"}, {"weight": 210, "route_id": "5", "source": "629", "target": "626"}, {"weight": 300, "transfer": true, "source": "629", "target": "B08"}, {"weight": 180, "transfer": true, "source": "629", "target": "R11"}, {"weight": 120, "route_id": "6", "source": "630", "target": "631"}, {"weight": 90, "route_id": "6", "source": "630", "target": "629"}, {"weight": 180, "transfer": true, "source": "630", "target": "F11"}, {"weight": 210, "route_id": "5", "source": "631", "target": "635"}, {"weight": 120, "route_id": "6", "source": "631", "target": "632"}, {"weight": 90, "route_id": "6", "source": "631", "target": "630"}, {"weight": 120, "route_id": "5", "source": "631", "target": "629"}, {"weight": 180, "transfer": true, "source": "631", "target": "723"}, {"weight": 180, "transfer": true, "source": "631", "target": "901"}, {"weight": 60, "route_id": "6", "source": "632", "target": "633"}, {"weight": 120, "route_id": "6", "source": "632", "target": "631"}, {"weight": 60, "route_id": "6", "source": "633", "target": "634"}, {"weight": 60, "route_id": "6", "source": "633", "target": "632"}, {"weight": 120, "route_id": "6", "source": "634", "target": "635"}, {"weight": 60, "route_id": "6", "source": "634", "target": "633"}, {"weight": 270, "route_id": "5", "source": "635", "target": "640"}, {"weight": 90, "route_id": "6", "source": "635", "target": "636"}, {"weight": 120, "route_id": "6", "source": "635", "target": "634"}, {"weight": 210, "route_id": "5", "source": "635", "target": "631"}, {"weight": 180, "transfer": true, "source": "635", "target": "L03"}, {"weight": 180, "transfer": true, "source": "635", "target": "R20"}, {"weight": 90, "route_id": "6", "source": "636", "target": "637"}, {"weight": 90, "route_id": "6", "source": "636", "target": "635"}, {"weight": 60, "route_id": "6", "source": "637", "target": "638"}, {"weight": 90, "route_id": "6", "source": "637", "target": "636"}, {"weight": 180, "transfer": true, "source": "637", "target": "D21"}, {"weight": 90, "route_id": "6", "source": "638", "target": "639"}, {"weight": 60, "route_id": "6", "source": "638", "target": "637"}, {"weight": 120, "route_id": "6", "source": "639", "target": "640"}, {"weight": 90, "route_id": "6", "source": "639", "target": "638"}, {"weight": 180, "transfer": true, "source": "639", "target": "M20"}, {"weight": 180, "transfer": true, "source": "639", "target": "Q01"}, {"weight": 180, "transfer": true, "source": "639", "target": "R23"}, {"weight": 120, "route_id": "5", "source": "640", "target": "418"}, {"weight": 120, "route_id": "6", "source": "640", "target": "639"}, {"weight": 270, "route_id": "5", "source": "640", "target": "635"}, {"weight": 180, "transfer": true, "source": "640", "target": "M21"}, {"weight": 150, "route_id": "7", "source": "701", "target": "702"}, {"weight": 90, "route_id": "7", "source": "702", "target": "705"}, {"weight": 210, "route_id": "7", "source": "702", "target": "701"}, {"weight": 240, "route_id": "7", "source": "702", "target": "707"}, {"weight": 60, "route_id": "7", "source": "705", "target": "706"}, {"weight": 120, "route_id": "7", "source": "705", "target": "702"}, {"weight": 60, "route_id": "7", "source": "706", "target": "707"}, {"weight": 60, "route_id": "7", "source": "706", "target": "705"}, {"weight": 90, "route_id": "7", "source": "707", "target": "708"}, {"weight": 60, "route_id": "7", "source": "707", "target": "706"}, {"weight": 180, "route_id": "7", "source": "707", "target": "710"}, {"weight": 210, "route_id": "7", "source": "707", "target": "702"}, {"weight": 60, "route_id": "7", "source": "708", "target": "709"}, {"weight": 60, "route_id": "7", "source": "708", "target": "707"}, {"weight": 60, "route_id": "7", "source": "709", "target": "710"}, {"weight": 60, "route_id": "7", "source": "709", "target": "708"}, {"weight": 90, "route_id": "7", "source": "710", "target": "711"}, {"weight": 60, "route_id": "7", "source": "710", "target": "709"}, {"weight": 180, "route_id": "7", "source": "710", "target": "707"}, {"weight": 180, "transfer": true, "source": "710", "target": "G14"}, {"weight": 120, "route_id": "7", "source": "711", "target": "712"}, {"weight": 90, "route_id": "7", "source": "711", "target": "710"}, {"weight": 90, "route_id": "7", "source": "712", "target": "713"}, {"weight": 120, "route_id": "7", "source": "712", "target": "711"}, {"weight": 60, "route_id": "7", "source": "713", "target": "714"}, {"weight": 90, "route_id": "7", "source": "713", "target": "712"}, {"weight": 60, "route_id": "7", "source": "714", "target": "715"}, {"weight": 60, "route_id": "7", "source": "714", "target": "713"}, {"weight": 90, "route_id": "7", "source": "715", "target": "716"}, {"weight": 60, "route_id": "7", "source": "715", "target": "714"}, {"weight": 120, "route_id": "7", "source": "716", "target": "718"}, {"weight": 90, "route_id": "7", "source": "716", "target": "715"}, {"weight": 90, "route_id": "7", "source": "718", "target": "719"}, {"weight": 120, "route_id": "7", "source": "718", "target": "716"}, {"weight": 0, "transfer": true, "source": "718", "target": "R09"}, {"weight": 120, "route_id": "7", "source": "719", "target": "720"}, {"weight": 90, "route_id": "7", "source": "719", "target": "718"}, {"weight": 300, "transfer": true, "source": "719", "target": "F09"}, {"weight": 180, "transfer": true, "source": "719", "target": "G22"}, {"weight": 60, "route_id": "7", "source": "720", "target": "721"}, {"weight": 120, "route_id": "7", "source": "720", "target": "719"}, {"weight": 270, "route_id": "7", "source": "721", "target": "723"}, {"weight": 30, "route_id": "7", "source": "721", "target": "720"}, {"weight": 90, "route_id": "7", "source": "723", "target": "724"}, {"weight": 300, "route_id": "7", "source": "723", "target": "721"}, {"weight": 180, "transfer": true, "source": "723", "target": "631"}, {"weight": 300, "transfer": true, "source": "723", "target": "901"}, {"weight": 90, "route_id": "7", "source": "724", "target": "725"}, {"weight": 60, "route_id": "7", "source": "724", "target": "723"}, {"weight": 180, "transfer": true, "source": "724", "target": "D16"}, {"weight": 210, "route_id": "7", "source": "725", "target": "726"}, {"weight": 90, "route_id": "7", "source": "725", "target": "724"}, {"weight": 180, "transfer": true, "source": "725", "target": "127"}, {"weight": 300, "transfer": true, "source": "725", "target": "902"}, {"weight": 180, "transfer": true, "source": "725", "target": "A27"}, {"weight": 180, "transfer": true, "source": "725", "target": "R16"}, {"weight": 150, "route_id": "7", "source": "726", "target": "725"}, {"weight": 90, "route_id": "GS", "source": "901", "target": "902"}, {"weight": 180, "transfer": true, "source": "901", "target": "631"}, {"weight": 300, "transfer": true, "source": "901", "target": "723"}, {"weight": 90, "route_id": "GS", "source": "902", "target": "901"}, {"weight": 180, "transfer": true, "source": "902", "target": "127"}, {"weight": 300, "transfer": true, "source": "902", "target": "725"}, {"weight": 300, "transfer": true, "source": "902", "target": "A27"}, {"weight": 180, "transfer": true, "source": "902", "target": "R16"}, {"weight": 90, "route_id": "A", "source": "A02", "target": "A03"}, {"weight": 120, "route_id": "A", "source": "A03", "target": "A05"}, {"weight": 90, "route_id": "A", "source": "A03", "target": "A02"}, {"weight": 120, "route_id": "A", "source": "A05", "target": "A06"}, {"weight": 150, "route_id": "A", "source": "A05", "target": "A03"}, {"weight": 60, "route_id": "A", "source": "A06", "target": "A07"}, {"weight": 120, "route_id": "A", "source": "A06", "target": "A05"}, {"weight": 120, "route_id": "A", "source": "A07", "target": "A09"}, {"weight": 60, "route_id": "A", "source": "A07", "target": "A06"}, {"weight": 60, "route_id": "C", "source": "A09", "target": "A10"}, {"weight": 120, "route_id": "A", "source": "A09", "target": "A07"}, {"weight": 210, "route_id": "A", "source": "A09", "target": "A12"}, {"weight": 180, "transfer": true, "source": "A09", "target": "112"}, {"weight": 60, "route_id": "C", "source": "A10", "target": "A11"}, {"weight": 90, "route_id": "C", "source": "A10", "target": "A09"}, {"weight": 90, "route_id": "C", "source": "A11", "target": "A12"}, {"weight": 90, "route_id": "C", "source": "A11", "target": "A10"}, {"weight": 120, "route_id": "C", "source": "A12", "target": "A14"}, {"weight": 90, "route_id": "C", "source": "A12", "target": "A11"}, {"weight": 210, "route_id": "A", "source": "A12", "target": "A15"}, {"weight": 180, "route_id": "A", "source": "A12", "target": "A09"}, {"weight": 180, "transfer": true, "source": "A12", "target": "D13"}, {"weight": 90, "route_id": "B", "source": "A14", "target": "A15"}, {"weight": 90, "route_id": "C", "source": "A14", "target": "A12"}, {"weight": 120, "route_id": "B", "source": "A14", "target": "D13"}, {"weight": 90, "route_id": "B", "source": "A15", "target": "A16"}, {"weight": 90, "route_id": "B", "source": "A15", "target": "A14"}, {"weight": 480, "route_id": "D", "source": "A15", "target": "A24"}, {"weight": 150, "route_id": "A", "source": "A15", "target": "A12"}, {"weight": 210, "route_id": "D", "source": "A15", "target": "D13"}, {"weight": 90, "route_id": "B", "source": "A16", "target": "A17"}, {"weight": 90, "route_id": "B", "source": "A16", "target": "A15"}, {"weight": 60, "route_id": "B", "source": "A17", "target": "A18"}, {"weight": 90, "route_id": "B", "source": "A17", "target": "A16"}, {"weight": 90, "route_id": "B", "source": "A18", "target": "A19"}, {"weight": 60, "route_id": "B", "source": "A18", "target": "A17"}, {"weight": 90, "route_id": "B", "source": "A19", "target": "A20"}, {"weight": 90, "route_id": "B", "source": "A19", "target": "A18"}, {"weight": 90, "route_id": "B", "source": "A20", "target": "A21"}, {"weight": 90, "route_id": "B", "source": "A20", "target": "A19"}, {"weight": 90, "route_id": "B", "source": "A21", "target": "A22"}, {"weight": 90, "route_id": "B", "source": "A21", "target": "A20"}, {"weight": 90, "route_id": "B", "source": "A22", "target": "A24"}, {"weight": 90, "route_id": "B", "source": "A22", "target": "A21"}, {"weight": 90, "route_id": "C", "source": "A24", "target": "A25"}, {"weight": 90, "route_id": "B", "source": "A24", "target": "A22"}, {"weight": 150, "route_id": "A", "source": "A24", "target": "A27"}, {"weight": 480, "route_id": "D", "source": "A24", "target": "A15"}, {"weight": 120, "route_id": "B", "source": "A24", "target": "D14"}, {"weight": 180, "transfer": true, "source": "A24", "target": "125"}, {"weight": 120, "route_id": "E", "source": "A25", "target": "A27"}, {"weight": 120, "route_id": "C", "source": "A25", "target": "A24"}, {"weight": 90, "route_id": "E", "source": "A25", "target": "D14"}, {"weight": 60, "route_id": "E", "source": "A27", "target": "A28"}, {"weight": 90, "route_id": "E", "source": "A27", "target": "A25"}, {"weight": 180, "route_id": "A", "source": "A27", "target": "A24"}, {"weight": 300, "transfer": true, "source": "A27", "target": "127"}, {"weight": 180, "transfer": true, "source": "A27", "target": "725"}, {"weight": 300, "transfer": true, "source": "A27", "target": "902"}, {"weight": 300, "transfer": true, "source": "A27", "target": "R16"}, {"weight": 90, "route_id": "E", "source": "A28", "target": "A30"}, {"weight": 60, "route_id": "E", "source": "A28", "target": "A27"}, {"weight": 150, "route_id": "A", "source": "A28", "target": "A31"}, {"weight": 90, "route_id": "E", "source": "A30", "target": "A31"}, {"weight": 120, "route_id": "E", "source": "A30", "target": "A28"}, {"weight": 120, "route_id": "E", "source": "A31", "target": "A32"}, {"weight": 90, "route_id": "E", "source": "A31", "target": "A30"}, {"weight": 210, "route_id": "A", "source": "A31", "target": "A28"}, {"weight": 90, "transfer": true, "source": "A31", "target": "L01"}, {"weight": 90, "route_id": "E", "source": "A32", "target": "A33"}, {"weight": 120, "route_id": "E", "source": "A32", "target": "A31"}, {"weight": 150, "route_id": "A", "source": "A32", "target": "A34"}, {"weight": 180, "transfer": true, "source": "A32", "target": "D20"}, {"weight": 90, "route_id": "E", "source": "A33", "target": "A34"}, {"weight": 120, "route_id": "E", "source": "A33", "target": "A32"}, {"weight": 120, "route_id": "C", "source": "A34", "target": "A36"}, {"weight": 90, "route_id": "E", "source": "A34", "target": "A33"}, {"weight": 150, "route_id": "A", "source": "A34", "target": "A32"}, {"weight": 120, "route_id": "E", "source": "A34", "target": "E01"}, {"weight": 120, "route_id": "C", "source": "A36", "target": "A38"}, {"weight": 90, "route_id": "C", "source": "A36", "target": "A34"}, {"weight": 180, "transfer": true, "source": "A36", "target": "228"}, {"weight": 300, "transfer": true, "source": "A36", "target": "E01"}, {"weight": 420, "transfer": true, "source": "A36", "target": "R25"}, {"weight": 180, "route_id": "C", "source": "A38", "target": "A40"}, {"weight": 120, "route_id": "C", "source": "A38", "target": "A36"}, {"weight": 180, "transfer": true, "source": "A38", "target": "229"}, {"weight": 180, "transfer": true, "source": "A38", "target": "418"}, {"weight": 180, "transfer": true, "source": "A38", "target": "M22"}, {"weight": 120, "route_id": "C", "source": "A40", "target": "A41"}, {"weight": 180, "route_id": "C", "source": "A40", "target": "A38"}, {"weight": 90, "route_id": "C", "source": "A41", "target": "A42"}, {"weight": 120, "route_id": "C", "source": "A41", "target": "A40"}, {"weight": 180, "route_id": "F", "source": "A41", "target": "F20"}, {"weight": 90, "route_id": "F", "source": "A41", "target": "F18"}, {"weight": 420, "route_id": "F", "source": "A41", "target": "F24"}, {"weight": 90, "transfer": true, "source": "A41", "target": "R29"}, {"weight": 120, "route_id": "C", "source": "A42", "target": "A43"}, {"weight": 90, "route_id": "C", "source": "A42", "target": "A41"}, {"weight": 270, "route_id": "A", "source": "A42", "target": "A46"}, {"weight": 90, "route_id": "G", "source": "A42", "target": "F20"}, {"weight": 90, "route_id": "G", "source": "A42", "target": "G36"}, {"weight": 90, "route_id": "C", "source": "A43", "target": "A44"}, {"weight": 90, "route_id": "C", "source": "A43", "target": "A42"}, {"weight": 90, "route_id": "C", "source": "A44", "target": "A45"}, {"weight": 90, "route_id": "C", "source": "A44", "target": "A43"}, {"weight": 60, "route_id": "C", "source": "A45", "target": "A46"}, {"weight": 90, "route_id": "C", "source": "A45", "target": "A44"}, {"weight": 180, "transfer": true, "source": "A45", "target": "S01"}, {"weight": 120, "route_id": "C", "source": "A46", "target": "A47"}, {"weight": 60, "route_id": "C", "source": "A46", "target": "A45"}, {"weight": 300, "route_id": "A", "source": "A46", "target": "A42"}, {"weight": 120, "route_id": "A", "source": "A46", "target": "A48"}, {"weight": 90, "route_id": "C", "source": "A47", "target": "A48"}, {"weight": 90, "route_id": "C", "source": "A47", "target": "A46"}, {"weight": 120, "route_id": "C", "source": "A48", "target": "A49"}, {"weight": 90, "route_id": "C", "source": "A48", "target": "A47"}, {"weight": 180, "route_id": "A", "source": "A48", "target": "A46"}, {"weight": 180, "route_id": "A", "source": "A48", "target": "A51"}, {"weight": 90, "route_id": "C", "source": "A49", "target": "A50"}, {"weight": 90, "route_id": "C", "source": "A49", "target": "A48"}, {"weight": 90, "route_id": "C", "source": "A50", "target": "A51"}, {"weight": 120, "route_id": "C", "source": "A50", "target": "A49"}, {"weight": 120, "route_id": "C", "source": "A51", "target": "A52"}, {"weight": 60, "route_id": "C", "source": "A51", "target": "A50"}, {"weight": 180, "route_id": "A", "source": "A51", "target": "A48"}, {"weight": 240, "route_id": "A", "source": "A51", "target": "A55"}, {"weight": 180, "transfer": true, "source": "A51", "target": "J27"}, {"weight": 180, "transfer": true, "source": "A51", "target": "L22"}, {"weight": 90, "route_id": "C", "source": "A52", "target": "A53"}, {"weight": 120, "route_id": "C", "source": "A52", "target": "A51"}, {"weight": 90, "route_id": "C", "source": "A53", "target": "A54"}, {"weight": 90, "route_id": "C", "source": "A53", "target": "A52"}, {"weight": 90, "route_id": "C", "source": "A54", "target": "A55"}, {"weight": 90, "route_id": "C", "source": "A54", "target": "A53"}, {"weight": 90, "route_id": "A", "source": "A55", "target": "A57"}, {"weight": 90, "route_id": "C", "source": "A55", "target": "A54"}, {"weight": 240, "route_id": "A", "source": "A55", "target": "A51"}, {"weight": 90, "route_id": "A", "source": "A57", "target": "A59"}, {"weight": 90, "route_id": "A", "source": "A57", "target": "A55"}, {"weight": 90, "route_id": "A", "source": "A59", "target": "A60"}, {"weight": 90, "route_id": "A", "source": "A59", "target": "A57"}, {"weight": 90, "route_id": "A", "source": "A60", "target": "A61"}, {"weight": 90, "route_id": "A", "source": "A60", "target": "A59"}, {"weight": 240, "route_id": "A", "source": "A61", "target": "H02"}, {"weight": 90, "route_id": "A", "source": "A61", "target": "A60"}, {"weight": 120, "route_id": "A", "source": "A61", "target": "A63"}, {"weight": 90, "route_id": "A", "source": "A63", "target": "A61"}, {"weight": 90, "route_id": "A", "source": "A63", "target": "A64"}, {"weight": 60, "route_id": "A", "source": "A64", "target": "A63"}, {"weight": 60, "route_id": "A", "source": "A64", "target": "A65"}, {"weight": 90, "route_id": "A", "source": "A65", "target": "A64"}, {"weight": 120, "route_id": "F", "source": "B04", "target": "B06"}, {"weight": 150, "route_id": "F", "source": "B04", "target": "G20"}, {"weight": 360, "route_id": "F", "source": "B04", "target": "G14"}, {"weight": 150, "route_id": "F", "source": "B06", "target": "B08"}, {"weight": 120, "route_id": "F", "source": "B06", "target": "B04"}, {"weight": 150, "route_id": "F", "source": "B08", "target": "B10"}, {"weight": 150, "route_id": "F", "source": "B08", "target": "B06"}, {"weight": 120, "route_id": "R", "source": "B08", "target": "Q03"}, {"weight": 180, "route_id": "Q", "source": "B08", "target": "R14"}, {"weight": 300, "transfer": true, "source": "B08", "target": "629"}, {"weight": 300, "transfer": true, "source": "B08", "target": "R11"}, {"weight": 90, "route_id": "F", "source": "B10", "target": "D15"}, {"weight": 150, "route_id": "F", "source": "B10", "target": "B08"}, {"weight": 120, "route_id": "D", "source": "B12", "target": "B13"}, {"weight": 240, "route_id": "D", "source": "B12", "target": "R36"}, {"weight": 90, "route_id": "D", "source": "B13", "target": "B14"}, {"weight": 120, "route_id": "D", "source": "B13", "target": "B12"}, {"weight": 120, "route_id": "D", "source": "B14", "target": "B15"}, {"weight": 90, "route_id": "D", "source": "B14", "target": "B13"}, {"weight": 90, "route_id": "D", "source": "B15", "target": "B16"}, {"weight": 120, "route_id": "D", "source": "B15", "target": "B14"}, {"weight": 120, "route_id": "D", "source": "B16", "target": "B17"}, {"weight": 90, "route_id": "D", "source": "B16", "target": "B15"}, {"weight": 180, "transfer": true, "source": "B16", "target": "N04"}, {"weight": 90, "route_id": "D", "source": "B17", "target": "B18"}, {"weight": 120, "route_id": "D", "source": "B17", "target": "B16"}, {"weight": 90, "route_id": "D", "source": "B18", "target": "B19"}, {"weight": 90, "route_id": "D", "source": "B18", "target": "B17"}, {"weight": 90, "route_id": "D", "source": "B19", "target": "B20"}, {"weight": 90, "route_id": "D", "source": "B19", "target": "B18"}, {"weight": 60, "route_id": "D", "source": "B20", "target": "B21"}, {"weight": 90, "route_id": "D", "source": "B20", "target": "B19"}, {"weight": 90, "route_id": "D", "source": "B21", "target": "B22"}, {"weight": 60, "route_id": "D", "source": "B21", "target": "B20"}, {"weight": 120, "route_id": "D", "source": "B22", "target": "B23"}, {"weight": 90, "route_id": "D", "source": "B22", "target": "B21"}, {"weight": 240, "route_id": "D", "source": "B23", "target": "D43"}, {"weight": 120, "route_id": "D", "source": "B23", "target": "B22"}, {"weight": 180, "route_id": "D", "source": "D01", "target": "D03"}, {"weight": 120, "route_id": "B", "source": "D03", "target": "D04"}, {"weight": 150, "route_id": "D", "source": "D03", "target": "D01"}, {"weight": 120, "route_id": "B", "source": "D04", "target": "D05"}, {"weight": 120, "route_id": "B", "source": "D04", "target": "D03"}, {"weight": 90, "route_id": "B", "source": "D05", "target": "D06"}, {"weight": 90, "route_id": "B", "source": "D05", "target": "D04"}, {"weight": 150, "route_id": "D", "source": "D05", "target": "D07"}, {"weight": 90, "route_id": "B", "source": "D06", "target": "D07"}, {"weight": 90, "route_id": "B", "source": "D06", "target": "D05"}, {"weight": 90, "route_id": "B", "source": "D07", "target": "D08"}, {"weight": 90, "route_id": "B", "source": "D07", "target": "D06"}, {"weight": 480, "route_id": "D", "source": "D07", "target": "D13"}, {"weight": 210, "route_id": "B", "source": "D07", "target": "D05"}, {"weight": 90, "route_id": "B", "source": "D08", "target": "D09"}, {"weight": 90, "route_id": "B", "source": "D08", "target": "D07"}, {"weight": 120, "route_id": "B", "source": "D09", "target": "D10"}, {"weight": 90, "route_id": "B", "source": "D09", "target": "D08"}, {"weight": 120, "route_id": "B", "source": "D10", "target": "D11"}, {"weight": 120, "route_id": "B", "source": "D10", "target": "D09"}, {"weight": 120, "route_id": "B", "source": "D11", "target": "D12"}, {"weight": 120, "route_id": "B", "source": "D11", "target": "D10"}, {"weight": 180, "transfer": true, "source": "D11", "target": "414"}, {"weight": 150, "route_id": "B", "source": "D12", "target": "D13"}, {"weight": 150, "route_id": "B", "source": "D12", "target": "D11"}, {"weight": 210, "route_id": "D", "source": "D13", "target": "A15"}, {"weight": 120, "route_id": "B", "source": "D13", "target": "D12"}, {"weight": 450, "route_id": "D", "source": "D13", "target": "D07"}, {"weight": 150, "route_id": "B", "source": "D13", "target": "A14"}, {"weight": 180, "transfer": true, "source": "D13", "target": "A12"}, {"weight": 90, "route_id": "B", "source": "D14", "target": "D15"}, {"weight": 120, "route_id": "B", "source": "D14", "target": "A24"}, {"weight": 90, "route_id": "E", "source": "D14", "target": "A25"}, {"weight": 60, "route_id": "E", "source": "D14", "target": "F12"}, {"weight": 90, "route_id": "B", "source": "D15", "target": "D16"}, {"weight": 90, "route_id": "B", "source": "D15", "target": "D14"}, {"weight": 90, "route_id": "F", "source": "D15", "target": "B10"}, {"weight": 120, "route_id": "M", "source": "D15", "target": "F12"}, {"weight": 90, "route_id": "B", "source": "D16", "target": "D17"}, {"weight": 90, "route_id": "B", "source": "D16", "target": "D15"}, {"weight": 180, "transfer": true, "source": "D16", "target": "724"}, {"weight": 180, "route_id": "B", "source": "D17", "target": "D20"}, {"weight": 90, "route_id": "B", "source": "D17", "target": "D16"}, {"weight": 120, "route_id": "M", "source": "D17", "target": "D18"}, {"weight": 180, "transfer": true, "source": "D17", "target": "R17"}, {"weight": 90, "route_id": "M", "source": "D18", "target": "D19"}, {"weight": 120, "route_id": "M", "source": "D18", "target": "D17"}, {"weight": 120, "route_id": "M", "source": "D19", "target": "D20"}, {"weight": 90, "route_id": "M", "source": "D19", "target": "D18"}, {"weight": 300, "transfer": true, "source": "D19", "target": "132"}, {"weight": 180, "transfer": true, "source": "D19", "target": "L02"}, {"weight": 150, "route_id": "B", "source": "D20", "target": "D21"}, {"weight": 210, "route_id": "B", "source": "D20", "target": "D17"}, {"weight": 120, "route_id": "M", "source": "D20", "target": "D19"}, {"weight": 180, "transfer": true, "source": "D20", "target": "A32"}, {"weight": 120, "route_id": "B", "source": "D21", "target": "D22"}, {"weight": 150, "route_id": "B", "source": "D21", "target": "D20"}, {"weight": 90, "route_id": "F", "source": "D21", "target": "F14"}, {"weight": 180, "route_id": "M", "source": "D21", "target": "M18"}, {"weight": 180, "transfer": true, "source": "D21", "target": "637"}, {"weight": 510, "route_id": "B", "source": "D22", "target": "R30"}, {"weight": 120, "route_id": "B", "source": "D22", "target": "D21"}, {"weight": 630, "route_id": "D", "source": "D22", "target": "R31"}, {"weight": 180, "route_id": "B", "source": "D24", "target": "D25"}, {"weight": 150, "route_id": "B", "source": "D24", "target": "R30"}, {"weight": 180, "transfer": true, "source": "D24", "target": "235"}, {"weight": 300, "transfer": true, "source": "D24", "target": "R31"}, {"weight": 180, "route_id": "B", "source": "D25", "target": "D26"}, {"weight": 120, "route_id": "B", "source": "D25", "target": "D24"}, {"weight": 180, "route_id": "FS", "source": "D26", "target": "S04"}, {"weight": 90, "route_id": "B", "source": "D26", "target": "D27"}, {"weight": 150, "route_id": "B", "source": "D26", "target": "D25"}, {"weight": 90, "route_id": "B", "source": "D27", "target": "D28"}, {"weight": 90, "route_id": "B", "source": "D27", "target": "D26"}, {"weight": 90, "route_id": "B", "source": "D28", "target": "D29"}, {"weight": 90, "route_id": "B", "source": "D28", "target": "D27"}, {"weight": 30, "route_id": "B", "source": "D29", "target": "D30"}, {"weight": 90, "route_id": "B", "source": "D29", "target": "D28"}, {"weight": 90, "route_id": "B", "source": "D30", "target": "D31"}, {"weight": 30, "route_id": "B", "source": "D30", "target": "D29"}, {"weight": 90, "route_id": "B", "source": "D31", "target": "D32"}, {"weight": 90, "route_id": "B", "source": "D31", "target": "D30"}, {"weight": 60, "route_id": "B", "source": "D32", "target": "D33"}, {"weight": 90, "route_id": "B", "source": "D32", "target": "D31"}, {"weight": 120, "route_id": "B", "source": "D33", "target": "D34"}, {"weight": 60, "route_id": "B", "source": "D33", "target": "D32"}, {"weight": 120, "route_id": "B", "source": "D34", "target": "D35"}, {"weight": 120, "route_id": "B", "source": "D34", "target": "D33"}, {"weight": 150, "route_id": "Q", "source": "D35", "target": "D37"}, {"weight": 120, "route_id": "B", "source": "D35", "target": "D34"}, {"weight": 240, "route_id": "B", "source": "D35", "target": "D39"}, {"weight": 60, "route_id": "Q", "source": "D37", "target": "D38"}, {"weight": 120, "route_id": "Q", "source": "D37", "target": "D35"}, {"weight": 150, "route_id": "Q", "source": "D38", "target": "D39"}, {"weight": 60, "route_id": "Q", "source": "D38", "target": "D37"}, {"weight": 120, "route_id": "B", "source": "D39", "target": "D40"}, {"weight": 120, "route_id": "Q", "source": "D39", "target": "D38"}, {"weight": 270, "route_id": "B", "source": "D39", "target": "D35"}, {"weight": 120, "route_id": "Q", "source": "D40", "target": "D41"}, {"weight": 150, "route_id": "B", "source": "D40", "target": "D39"}, {"weight": 120, "route_id": "Q", "source": "D41", "target": "D42"}, {"weight": 120, "route_id": "Q", "source": "D41", "target": "D40"}, {"weight": 90, "route_id": "Q", "source": "D42", "target": "D43"}, {"weight": 90, "route_id": "F", "source": "D42", "target": "F39"}, {"weight": 90, "route_id": "Q", "source": "D42", "target": "D41"}, {"weight": 240, "route_id": "D", "source": "D43", "target": "B23"}, {"weight": 90, "route_id": "Q", "source": "D43", "target": "D42"}, {"weight": 240, "route_id": "N", "source": "D43", "target": "N10"}, {"weight": 120, "route_id": "E", "source": "E01", "target": "A34"}, {"weight": 180, "transfer": true, "source": "E01", "target": "228"}, {"weight": 300, "transfer": true, "source": "E01", "target": "A36"}, {"weight": 240, "transfer": true, "source": "E01", "target": "R25"}, {"weight": 150, "route_id": "E", "source": "F01", "target": "F03"}, {"weight": 90, "route_id": "F", "source": "F01", "target": "F02"}, {"weight": 120, "route_id": "F", "source": "F02", "target": "F01"}, {"weight": 120, "route_id": "F", "source": "F02", "target": "F03"}, {"weight": 240, "route_id": "E", "source": "F03", "target": "F06"}, {"weight": 180, "route_id": "E", "source": "F03", "target": "F01"}, {"weight": 90, "route_id": "F", "source": "F03", "target": "F02"}, {"weight": 90, "route_id": "F", "source": "F03", "target": "F04"}, {"weight": 60, "route_id": "F", "source": "F04", "target": "F03"}, {"weight": 120, "route_id": "F", "source": "F04", "target": "F05"}, {"weight": 90, "route_id": "F", "source": "F05", "target": "F06"}, {"weight": 90, "route_id": "E", "source": "F05", "target": "G07"}, {"weight": 90, "route_id": "F", "source": "F05", "target": "F04"}, {"weight": 90, "route_id": "F", "source": "F06", "target": "F07"}, {"weight": 120, "route_id": "F", "source": "F06", "target": "F05"}, {"weight": 150, "route_id": "E", "source": "F06", "target": "G08"}, {"weight": 180, "route_id": "E", "source": "F06", "target": "G07"}, {"weight": 240, "route_id": "E", "source": "F06", "target": "F03"}, {"weight": 90, "route_id": "F", "source": "F07", "target": "G08"}, {"weight": 90, "route_id": "F", "source": "F07", "target": "F06"}, {"weight": 180, "route_id": "M", "source": "F09", "target": "F11"}, {"weight": 90, "route_id": "M", "source": "F09", "target": "G21"}, {"weight": 300, "transfer": true, "source": "F09", "target": "719"}, {"weight": 180, "transfer": true, "source": "F09", "target": "G22"}, {"weight": 90, "route_id": "M", "source": "F11", "target": "F12"}, {"weight": 180, "route_id": "M", "source": "F11", "target": "F09"}, {"weight": 180, "transfer": true, "source": "F11", "target": "630"}, {"weight": 90, "route_id": "E", "source": "F12", "target": "D14"}, {"weight": 90, "route_id": "M", "source": "F12", "target": "F11"}, {"weight": 120, "route_id": "M", "source": "F12", "target": "D15"}, {"weight": 90, "route_id": "F", "source": "F14", "target": "F15"}, {"weight": 90, "route_id": "F", "source": "F14", "target": "D21"}, {"weight": 90, "route_id": "F", "source": "F15", "target": "F16"}, {"weight": 90, "route_id": "F", "source": "F15", "target": "F14"}, {"weight": 180, "transfer": true, "source": "F15", "target": "M18"}, {"weight": 150, "route_id": "F", "source": "F16", "target": "F18"}, {"weight": 60, "route_id": "F", "source": "F16", "target": "F15"}, {"weight": 90, "route_id": "F", "source": "F18", "target": "A41"}, {"weight": 150, "route_id": "F", "source": "F18", "target": "F16"}, {"weight": 90, "route_id": "G", "source": "F20", "target": "F21"}, {"weight": 120, "route_id": "F", "source": "F20", "target": "A41"}, {"weight": 90, "route_id": "G", "source": "F20", "target": "A42"}, {"weight": 90, "route_id": "G", "source": "F21", "target": "F22"}, {"weight": 90, "route_id": "G", "source": "F21", "target": "F20"}, {"weight": 90, "route_id": "G", "source": "F22", "target": "F23"}, {"weight": 120, "route_id": "G", "source": "F22", "target": "F21"}, {"weight": 90, "route_id": "G", "source": "F23", "target": "F24"}, {"weight": 90, "route_id": "G", "source": "F23", "target": "F22"}, {"weight": 180, "transfer": true, "source": "F23", "target": "R33"}, {"weight": 90, "route_id": "G", "source": "F24", "target": "F25"}, {"weight": 90, "route_id": "G", "source": "F24", "target": "F23"}, {"weight": 330, "route_id": "F", "source": "F24", "target": "A41"}, {"weight": 240, "route_id": "F", "source": "F24", "target": "F27"}, {"weight": 150, "route_id": "G", "source": "F25", "target": "F26"}, {"weight": 90, "route_id": "G", "source": "F25", "target": "F24"}, {"weight": 90, "route_id": "G", "source": "F26", "target": "F27"}, {"weight": 150, "route_id": "G", "source": "F26", "target": "F25"}, {"weight": 120, "route_id": "F", "source": "F27", "target": "F29"}, {"weight": 90, "route_id": "G", "source": "F27", "target": "F26"}, {"weight": 180, "route_id": "F", "source": "F27", "target": "F24"}, {"weight": 120, "route_id": "F", "source": "F29", "target": "F30"}, {"weight": 120, "route_id": "F", "source": "F29", "target": "F27"}, {"weight": 60, "route_id": "F", "source": "F30", "target": "F31"}, {"weight": 90, "route_id": "F", "source": "F30", "target": "F29"}, {"weight": 60, "route_id": "F", "source": "F31", "target": "F32"}, {"weight": 60, "route_id": "F", "source": "F31", "target": "F30"}, {"weight": 120, "route_id": "F", "source": "F32", "target": "F33"}, {"weight": 60, "route_id": "F", "source": "F32", "target": "F31"}, {"weight": 90, "route_id": "F", "source": "F33", "target": "F34"}, {"weight": 90, "route_id": "F", "source": "F33", "target": "F32"}, {"weight": 90, "route_id": "F", "source": "F34", "target": "F35"}, {"weight": 90, "route_id": "F", "source": "F34", "target": "F33"}, {"weight": 120, "route_id": "F", "source": "F35", "target": "F36"}, {"weight": 90, "route_id": "F", "source": "F35", "target": "F34"}, {"weight": 120, "route_id": "F", "source": "F36", "target": "F38"}, {"weight": 120, "route_id": "F", "source": "F36", "target": "F35"}, {"weight": 120, "route_id": "F", "source": "F38", "target": "F39"}, {"weight": 90, "route_id": "F", "source": "F38", "target": "F36"}, {"weight": 90, "route_id": "F", "source": "F39", "target": "D42"}, {"weight": 120, "route_id": "F", "source": "F39", "target": "F38"}, {"weight": 60, "route_id": "J", "source": "G05", "target": "G06"}, {"weight": 150, "route_id": "E", "source": "G06", "target": "G07"}, {"weight": 60, "route_id": "J", "source": "G06", "target": "G05"}, {"weight": 240, "route_id": "J", "source": "G06", "target": "J12"}, {"weight": 90, "route_id": "E", "source": "G07", "target": "F05"}, {"weight": 150, "route_id": "E", "source": "G07", "target": "G06"}, {"weight": 180, "route_id": "E", "source": "G07", "target": "F06"}, {"weight": 90, "route_id": "R", "source": "G08", "target": "G09"}, {"weight": 120, "route_id": "F", "source": "G08", "target": "F07"}, {"weight": 420, "route_id": "F", "source": "G08", "target": "G14"}, {"weight": 150, "route_id": "E", "source": "G08", "target": "F06"}, {"weight": 120, "route_id": "R", "source": "G09", "target": "G10"}, {"weight": 120, "route_id": "R", "source": "G09", "target": "G08"}, {"weight": 60, "route_id": "R", "source": "G10", "target": "G11"}, {"weight": 120, "route_id": "R", "source": "G10", "target": "G09"}, {"weight": 120, "route_id": "R", "source": "G11", "target": "G12"}, {"weight": 90, "route_id": "R", "source": "G11", "target": "G10"}, {"weight": 90, "route_id": "R", "source": "G12", "target": "G13"}, {"weight": 120, "route_id": "R", "source": "G12", "target": "G11"}, {"weight": 90, "route_id": "R", "source": "G13", "target": "G14"}, {"weight": 120, "route_id": "R", "source": "G13", "target": "G12"}, {"weight": 90, "route_id": "R", "source": "G14", "target": "G15"}, {"weight": 120, "route_id": "R", "source": "G14", "target": "G13"}, {"weight": 360, "route_id": "E", "source": "G14", "target": "G21"}, {"weight": 420, "route_id": "F", "source": "G14", "target": "G08"}, {"weight": 390, "route_id": "F", "source": "G14", "target": "B04"}, {"weight": 180, "transfer": true, "source": "G14", "target": "710"}, {"weight": 90, "route_id": "R", "source": "G15", "target": "G16"}, {"weight": 90, "route_id": "R", "source": "G15", "target": "G14"}, {"weight": 90, "route_id": "R", "source": "G16", "target": "G18"}, {"weight": 120, "route_id": "R", "source": "G16", "target": "G15"}, {"weight": 120, "route_id": "R", "source": "G18", "target": "G19"}, {"weight": 90, "route_id": "R", "source": "G18", "target": "G16"}, {"weight": 120, "route_id": "R", "source": "G19", "target": "G20"}, {"weight": 120, "route_id": "R", "source": "G19", "target": "G18"}, {"weight": 120, "route_id": "R", "source": "G20", "target": "G21"}, {"weight": 120, "route_id": "R", "source": "G20", "target": "G19"}, {"weight": 150, "route_id": "F", "source": "G20", "target": "B04"}, {"weight": 120, "route_id": "M", "source": "G21", "target": "F09"}, {"weight": 120, "route_id": "R", "source": "G21", "target": "G20"}, {"weight": 330, "route_id": "E", "source": "G21", "target": "G14"}, {"weight": 330, "route_id": "R", "source": "G21", "target": "R11"}, {"weight": 60, "route_id": "G", "source": "G22", "target": "G24"}, {"weight": 180, "transfer": true, "source": "G22", "target": "719"}, {"weight": 180, "transfer": true, "source": "G22", "target": "F09"}, {"weight": 150, "route_id": "G", "source": "G24", "target": "G26"}, {"weight": 60, "route_id": "G", "source": "G24", "target": "G22"}, {"weight": 60, "route_id": "G", "source": "G26", "target": "G28"}, {"weight": 150, "route_id": "G", "source": "G26", "target": "G24"}, {"weight": 150, "route_id": "G", "source": "G28", "target": "G29"}, {"weight": 60, "route_id": "G", "source": "G28", "target": "G26"}, {"weight": 90, "route_id": "G", "source": "G29", "target": "G30"}, {"weight": 150, "route_id": "G", "source": "G29", "target": "G28"}, {"weight": 180, "transfer": true, "source": "G29", "target": "L10"}, {"weight": 60, "route_id": "G", "source": "G30", "target": "G31"}, {"weight": 90, "route_id": "G", "source": "G30", "target": "G29"}, {"weight": 90, "route_id": "G", "source": "G31", "target": "G32"}, {"weight": 60, "route_id": "G", "source": "G31", "target": "G30"}, {"weight": 90, "route_id": "G", "source": "G32", "target": "G33"}, {"weight": 90, "route_id": "G", "source": "G32", "target": "G31"}, {"weight": 60, "route_id": "G", "source": "G33", "target": "G34"}, {"weight": 90, "route_id": "G", "source": "G33", "target": "G32"}, {"weight": 90, "route_id": "G", "source": "G34", "target": "G35"}, {"weight": 60, "route_id": "G", "source": "G34", "target": "G33"}, {"weight": 90, "route_id": "G", "source": "G35", "target": "G36"}, {"weight": 90, "route_id": "G", "source": "G35", "target": "G34"}, {"weight": 90, "route_id": "G", "source": "G36", "target": "A42"}, {"weight": 90, "route_id": "G", "source": "G36", "target": "G35"}, {"weight": 180, "route_id": "A", "source": "H01", "target": "A61"}, {"weight": 120, "route_id": "A", "source": "H02", "target": "H03"}, {"weight": 60, "route_id": "A", "source": "H02", "target": "H01"}, {"weight": 390, "route_id": "A", "source": "H03", "target": "H04"}, {"weight": 120, "route_id": "A", "source": "H03", "target": "H02"}, {"weight": 240, "route_id": "A", "source": "H04", "target": "H06"}, {"weight": 390, "route_id": "A", "source": "H04", "target": "H03"}, {"weight": 240, "route_id": "H", "source": "H04", "target": "H12"}, {"weight": 90, "route_id": "A", "source": "H06", "target": "H07"}, {"weight": 240, "route_id": "A", "source": "H06", "target": "H04"}, {"weight": 120, "route_id": "A", "source": "H07", "target": "H08"}, {"weight": 90, "route_id": "A", "source": "H07", "target": "H06"}, {"weight": 90, "route_id": "A", "source": "H08", "target": "H09"}, {"weight": 120, "route_id": "A", "source": "H08", "target": "H07"}, {"weight": 120, "route_id": "A", "source": "H09", "target": "H10"}, {"weight": 90, "route_id": "A", "source": "H09", "target": "H08"}, {"weight": 90, "route_id": "A", "source": "H10", "target": "H11"}, {"weight": 120, "route_id": "A", "source": "H10", "target": "H09"}, {"weight": 90, "route_id": "A", "source": "H11", "target": "H10"}, {"weight": 210, "route_id": "H", "source": "H12", "target": "H04"}, {"weight": 90, "route_id": "H", "source": "H12", "target": "H13"}, {"weight": 90, "route_id": "H", "source": "H13", "target": "H12"}, {"weight": 60, "route_id": "H", "source": "H13", "target": "H14"}, {"weight": 120, "route_id": "H", "source": "H14", "target": "H13"}, {"weight": 90, "route_id": "H", "source": "H14", "target": "H15"},